{
  "type": "FeatureCollection",
  "features": [
    {"type":"Feature","properties":{"stop_lat":"42.394382","objectid_1":"4001","stop_desc":"Schaefer Hwy & Lyndon St","label":"6656 - Lyndon St / Schaefer Hwy","direction":"SOUTHBOUN","stop_code":"SFLYSB","stop_lon":"-83.179052","streetname":"Schaefer Hwy","stop_name":"SCHAEFER & LYNDON","crossstree":"Lyndon St","route":"41","routename":"SCHAEFER","stop_id":"6656"},"geometry":{"type":"Point","coordinates":[-83.17905609277302,42.394390136982445]}},{"type":"Feature","properties":{"stop_lat":"42.394838","objectid_1":"4002","stop_desc":"Schaefer Hwy & Lyndon St","label":"6657 - Lyndon St / Schaefer Hwy","direction":"NORTHBOUN","stop_code":"SFLYNB","stop_lon":"-83.178721","streetname":"Schaefer Hwy","stop_name":"SCHAEFER & LYNDON","crossstree":"Lyndon St","route":"41","routename":"SCHAEFER","stop_id":"6657"},"geometry":{"type":"Point","coordinates":[-83.17872509270863,42.39484613707887]}},{"type":"Feature","properties":{"stop_lat":"42.397012","objectid_1":"4003","stop_desc":"Schaefer Hwy & Eaton St","label":"6658 - Eaton St / Schaefer Hwy","direction":"NORTHBOUN","stop_code":"SFEANB","stop_lon":"-83.178733","streetname":"Schaefer Hwy","stop_name":"SCHAEFER & EATON","crossstree":"Eaton St","route":"41","routename":"SCHAEFER","stop_id":"6658"},"geometry":{"type":"Point","coordinates":[-83.1787370928921,42.39702013746631]}},{"type":"Feature","properties":{"stop_lat":"42.396967","objectid_1":"4004","stop_desc":"Schaefer Hwy & Chalfonte St","label":"6659 - Chalfonte St / Schaefer Hwy","direction":"SOUTHBOUN","stop_code":"SFEASB","stop_lon":"-83.179075","streetname":"Schaefer Hwy","stop_name":"SCHAFFER & EATON","crossstree":"Chalfonte St","route":"41","routename":"SCHAEFER","stop_id":"6659"},"geometry":{"type":"Point","coordinates":[-83.17907909299387,42.39697513744277]}},{"type":"Feature","properties":{"stop_lat":"42.399078","objectid_1":"4005","stop_desc":"Schaefer Hwy & Chalfonte St","label":"6660 - Chalfonte St / Schaefer Hwy","direction":"SOUTHBOUN","stop_code":"SFCHSB","stop_lon":"-83.179148","streetname":"Schaefer Hwy","stop_name":"SCHAEFER & CHALFONTE","crossstree":"Chalfonte St","route":"41","routename":"SCHAEFER","stop_id":"6660"},"geometry":{"type":"Point","coordinates":[-83.17915209319094,42.39908613781609]}},{"type":"Feature","properties":{"stop_lat":"42.399606","objectid_1":"4006","stop_desc":"Schaefer Hwy & Chalfonte St","label":"6661 - Chalfonte St / Schaefer Hwy","direction":"NORTHBOUN","stop_code":"SFCHNB","stop_lon":"-83.17883","streetname":"Schaefer Hwy","stop_name":"SCHAEFER & CHALFONTE","crossstree":"Chalfonte St","route":"41","routename":"SCHAEFER","stop_id":"6661"},"geometry":{"type":"Point","coordinates":[-83.17883409313653,42.39961413792478]}},{"type":"Feature","properties":{"stop_lat":"42.403478","objectid_1":"4007","stop_desc":"Schaefer Hwy & Keeler St","label":"6665 - Keeler St / Schaefer Hwy","direction":"SOUTHBOUN","stop_code":"SFKESB","stop_lon":"-83.179465","streetname":"Schaefer Hwy","stop_name":"SCHAEFER & KEELER","crossstree":"Keeler St","route":"41","routename":"SCHAEFER","stop_id":"6665"},"geometry":{"type":"Point","coordinates":[-83.17946909365264,42.40348613858684]}},{"type":"Feature","properties":{"stop_lat":"42.403791","objectid_1":"4008","stop_desc":"Schaefer Hwy & Keeler St","label":"6666 - Keeler St / Schaefer Hwy","direction":"NORTHBOUN","stop_code":"SFKENB","stop_lon":"-83.179122","streetname":"Schaefer Hwy","stop_name":"SCHAEFER & KEELER","crossstree":"Keeler St","route":"41","routename":"SCHAEFER","stop_id":"6666"},"geometry":{"type":"Point","coordinates":[-83.17912609357275,42.403799138658286]}},{"type":"Feature","properties":{"stop_lat":"42.405205","objectid_1":"4009","stop_desc":"Schaefer Hwy & Midland St","label":"6667 - Midland St / Schaefer Hwy","direction":"SOUTHBOUN","stop_code":"SFMISB","stop_lon":"-83.179489","streetname":"Schaefer Hwy","stop_name":"SCHAEFER & MIDLAND","crossstree":"Midland St","route":"41","routename":"SCHAEFER","stop_id":"6667"},"geometry":{"type":"Point","coordinates":[-83.17949309380299,42.40521313889391]}},{"type":"Feature","properties":{"stop_lat":"42.405536","objectid_1":"4010","stop_desc":"Schaefer Hwy & Midland St","label":"6668 - Midland St / Schaefer Hwy","direction":"NORTHBOUN","stop_code":"SFMINB","stop_lon":"-83.179134","streetname":"Schaefer Hwy","stop_name":"SCHAEFER & MIDLAND","crossstree":"Midland St","route":"41","routename":"SCHAEFER","stop_id":"6668"},"geometry":{"type":"Point","coordinates":[-83.17913809372084,42.40554413896906]}},{"type":"Feature","properties":{"stop_lat":"42.407333","objectid_1":"4011","stop_desc":"Schaefer Hwy & Pilgrim St","label":"6669 - Pilgrim St / Schaefer Hwy","direction":"NORTHBOUN","stop_code":"SFPINB","stop_lon":"-83.179231","streetname":"Schaefer Hwy","stop_name":"SCHAEFER & PILGRIM","crossstree":"Pilgrim St","route":"41","routename":"SCHAEFER","stop_id":"6669"},"geometry":{"type":"Point","coordinates":[-83.17923509389944,42.40734113928525]}},{"type":"Feature","properties":{"stop_lat":"42.411305","objectid_1":"4012","stop_desc":"Schaefer Hwy & Florence St","label":"6674 - Florence St / Schaefer Hwy","direction":"SOUTHBOUN","stop_code":"SFFLSB","stop_lon":"-83.179768","streetname":"Schaefer Hwy","stop_name":"SCHAEFER & FLORENCE","crossstree":"Florence St","route":"41","routename":"SCHAEFER","stop_id":"6674"},"geometry":{"type":"Point","coordinates":[-83.17977209439378,42.41131313996941]}},{"type":"Feature","properties":{"stop_lat":"42.411609","objectid_1":"4013","stop_desc":"Schaefer Hwy & Florence St","label":"6675 - Florence St / Schaefer Hwy","direction":"NORTHBOUN","stop_code":"SFFLNB","stop_lon":"-83.179438","streetname":"Schaefer Hwy","stop_name":"SCHAEFER & FLORENCE","crossstree":"Florence St","route":"41","routename":"SCHAEFER","stop_id":"6675"},"geometry":{"type":"Point","coordinates":[-83.17944209431712,42.41161714003867]}},{"type":"Feature","properties":{"stop_lat":"42.413711","objectid_1":"4014","stop_desc":"Schaefer Hwy & Grove St","label":"6676 - Grove St / Schaefer Hwy","direction":"NORTHBOUN","stop_code":"SFGRNB","stop_lon":"-83.179523","streetname":"Schaefer Hwy","stop_name":"SCHAEFER & GROVE","crossstree":"Grove St","route":"41","routename":"SCHAEFER","stop_id":"6676"},"geometry":{"type":"Point","coordinates":[-83.17952709451735,42.41371914040972]}},{"type":"Feature","properties":{"stop_lat":"42.416161","objectid_1":"4015","stop_desc":"Schaefer Hwy & W Mcnichols Rd","label":"6678 - W Mcnichols Rd / Schaefer Hwy","direction":"SOUTHBOUN","stop_code":"SFMCSB","stop_lon":"-83.180048","streetname":"Schaefer Hwy","stop_name":"SCHAEFER & MC NICHOLS","crossstree":"W Mcnichols Rd","route":"41","routename":"SCHAEFER","stop_id":"6678"},"geometry":{"type":"Point","coordinates":[-83.18005209488211,42.41616914082291]}},{"type":"Feature","properties":{"stop_lat":"42.416546","objectid_1":"4016","stop_desc":"Schaefer Hwy & W Mcnichols Rd","label":"6679 - W Mcnichols Rd / Schaefer Hwy","direction":"NORTHBOUN","stop_code":"SFMCNB","stop_lon":"-83.179718","streetname":"Schaefer Hwy","stop_name":"SCHAEFER & MC NICHOLS","crossstree":"W Mcnichols Rd","route":"41","routename":"SCHAEFER","stop_id":"6679"},"geometry":{"type":"Point","coordinates":[-83.17972209481223,42.41655414090654]}},{"type":"Feature","properties":{"stop_lat":"42.421555","objectid_1":"4017","stop_desc":"Schaefer Hwy & Thatcher St","label":"6681 - Thatcher St / Schaefer Hwy","direction":"SOUTHBOUN","stop_code":"SFTHSB","stop_lon":"-83.180194","streetname":"Schaefer Hwy","stop_name":"SCHAEFER & THATCHER","crossstree":"Thatcher St","route":"41","routename":"SCHAEFER","stop_id":"6681"},"geometry":{"type":"Point","coordinates":[-83.18019809537385,42.421563141778265]}},{"type":"Feature","properties":{"stop_lat":"42.422029","objectid_1":"4018","stop_desc":"Schaefer Hwy & Thatcher St","label":"6682 - Thatcher St / Schaefer Hwy","direction":"NORTHBOUN","stop_code":"SFTHNB","stop_lon":"-83.179851","streetname":"Schaefer Hwy","stop_name":"SCHAEFER & THATCHER","crossstree":"Thatcher St","route":"41","routename":"SCHAEFER","stop_id":"6682"},"geometry":{"type":"Point","coordinates":[-83.1798550953073,42.4220371418784]}},{"type":"Feature","properties":{"stop_lat":"42.423979","objectid_1":"4019","stop_desc":"Schaefer Hwy & James Couzens Fwy","label":"6684 - Curtis St / Schaefer Hwy","direction":"SOUTHBOUN","stop_code":"SFJCSB","stop_lon":"-83.180316","streetname":"Schaefer Hwy","stop_name":"SCHAEFER & JAMES COUZENS","crossstree":"Curtis St","route":"41","routename":"SCHAEFER","stop_id":"6684"},"geometry":{"type":"Point","coordinates":[-83.18032009561226,42.42398714220498]}},{"type":"Feature","properties":{"stop_lat":"42.423764","objectid_1":"4020","stop_desc":"Schaefer Hwy & Curtis Ave","label":"6685 - Curtis Ave / Schaefer Hwy","direction":"NORTHBOUN","stop_code":"SFCUNB","stop_lon":"-83.180022","streetname":"Schaefer Hwy","stop_name":"SCHAEFER & CURTIS","crossstree":"Curtis Ave","route":"41","routename":"SCHAEFER","stop_id":"6685"},"geometry":{"type":"Point","coordinates":[-83.18002609550373,42.42377214218005]}},{"type":"Feature","properties":{"stop_lat":"42.427074","objectid_1":"4021","stop_desc":"Schaefer Hwy & Margareta St","label":"6691 - Margareta St / Schaefer Hwy","direction":"SOUTHBOUN","stop_code":"SFMASB","stop_lon":"-83.180547","streetname":"Schaefer Hwy","stop_name":"SCHAEFER & MARGARETA","crossstree":"Margareta St","route":"41","routename":"SCHAEFER","stop_id":"6691"},"geometry":{"type":"Point","coordinates":[-83.18055109593995,42.42708214274637]}},{"type":"Feature","properties":{"stop_lat":"42.42744","objectid_1":"4022","stop_desc":"Schaefer Hwy & Margareta St","label":"6692 - Margareta St / Schaefer Hwy","direction":"NORTHBOUN","stop_code":"SFMANB","stop_lon":"-83.180241","streetname":"Schaefer Hwy","stop_name":"SCHAEFER & MARGARETA","crossstree":"Margareta St","route":"41","routename":"SCHAEFER","stop_id":"6692"},"geometry":{"type":"Point","coordinates":[-83.18024509587585,42.427448142825526]}},{"type":"Feature","properties":{"stop_lat":"42.434185","objectid_1":"4023","stop_desc":"Schaefer Hwy & Vassar Ave","label":"6693 - Vassar Ave / Schaefer Hwy","direction":"SOUTHBOUN","stop_code":"SFVASB","stop_lon":"-83.180863","streetname":"Schaefer Hwy","stop_name":"SCHAEFER & VASSAR","crossstree":"Vassar Ave","route":"41","routename":"SCHAEFER","stop_id":"6693"},"geometry":{"type":"Point","coordinates":[-83.18086709662676,42.43419314399981]}},{"type":"Feature","properties":{"stop_lat":"42.43473","objectid_1":"4024","stop_desc":"Schaefer Hwy & Vassar Ave","label":"6694 - Vassar Ave / Schaefer Hwy","direction":"NORTHBOUN","stop_code":"SFVANB","stop_lon":"-83.180533","streetname":"Schaefer Hwy","stop_name":"SCHAEFER & VASSAR","crossstree":"Vassar Ave","route":"41","routename":"SCHAEFER","stop_id":"6694"},"geometry":{"type":"Point","coordinates":[-83.1805370965701,42.434738144111954]}},{"type":"Feature","properties":{"stop_lat":"42.437959","objectid_1":"4025","stop_desc":"Schaefer Hwy & Pembroke Ave","label":"6711 - Pembroke Ave / Schaefer Hwy","direction":"SOUTHBOUN","stop_code":"SFPESB","stop_lon":"-83.180887","streetname":"Schaefer Hwy","stop_name":"SCHAEFER & PEMBROKE","crossstree":"Pembroke Ave","route":"41","routename":"SCHAEFER","stop_id":"6711"},"geometry":{"type":"Point","coordinates":[-83.18089109694705,42.43796714467144]}},{"type":"Feature","properties":{"stop_lat":"42.438219","objectid_1":"4026","stop_desc":"Schaefer Hwy & Pembroke Ave","label":"6712 - Pembroke Ave / Schaefer Hwy","direction":"NORTHBOUN","stop_code":"SFPENB","stop_lon":"-83.180532","streetname":"Schaefer Hwy","stop_name":"SCHAEFER & PEMBROKE","crossstree":"Pembroke Ave","route":"41","routename":"SCHAEFER","stop_id":"6712"},"geometry":{"type":"Point","coordinates":[-83.18053609685904,42.438227144733965]}},{"type":"Feature","properties":{"stop_lat":"42.440419","objectid_1":"4027","stop_desc":"Schaefer Hwy & Chippewa St","label":"6713 - Chippewa St / Schaefer Hwy","direction":"SOUTHBOUN","stop_code":"SFCHSB","stop_lon":"-83.181021","streetname":"Schaefer Hwy","stop_name":"SCHAEFER & CHIPPEWA","crossstree":"Chippewa St","route":"41","routename":"SCHAEFER","stop_id":"6713"},"geometry":{"type":"Point","coordinates":[-83.18102509719235,42.44042714510386]}},{"type":"Feature","properties":{"stop_lat":"42.440303","objectid_1":"4028","stop_desc":"Schaefer Hwy & Chippewa St","label":"6714 - Chippewa St / Schaefer Hwy","direction":"NORTHBOUN","stop_code":"SFCHNB","stop_lon":"-83.180691","streetname":"Schaefer Hwy","stop_name":"SCHAEFER & CHIPPEWA","crossstree":"Chippewa St","route":"41","routename":"SCHAEFER","stop_id":"6714"},"geometry":{"type":"Point","coordinates":[-83.18069509708091,42.44031114509815]}},{"type":"Feature","properties":{"stop_lat":"42.382637","objectid_1":"4029","stop_desc":"La Salle Blvd & Lawrence St","label":"6778 - Lawrence St / La Salle Blvd","direction":"EASTBOUND","stop_code":"LSLAEB","stop_lon":"-83.109962","streetname":"La Salle Blvd","stop_name":"LASALLE & LAWRENCE","crossstree":"Lawrence St","route":"8","routename":"CANIFF","stop_id":"6778"},"geometry":{"type":"Point","coordinates":[-83.10996607048948,42.38264513801984]}},{"type":"Feature","properties":{"stop_lat":"42.343609","objectid_1":"4030","stop_desc":"W Warren Ave & Chase Rd","label":"6812 - Chase Rd / W Warren Ave","direction":"EASTBOUND","stop_code":"WRCHEB","stop_lon":"-83.186345","streetname":"W Warren Ave","stop_name":"WARREN & CHASE","crossstree":"Chase Rd","route":"14","routename":"CROSSTOWN","stop_id":"6812"},"geometry":{"type":"Point","coordinates":[-83.18634909083075,42.343617127583826]}},{"type":"Feature","properties":{"stop_lat":"42.343833","objectid_1":"4031","stop_desc":"W Warren Ave & Chase Rd","label":"6813 - Chase Rd / W Warren Ave","direction":"WESTBOUND","stop_code":"WRCHWB","stop_lon":"-83.187005","streetname":"W Warren Ave","stop_name":"WARREN & CHASE","crossstree":"Chase Rd","route":"14","routename":"CROSSTOWN","stop_id":"6813"},"geometry":{"type":"Point","coordinates":[-83.18700909105264,42.343841127593926]}},{"type":"Feature","properties":{"stop_lat":"42.343663","objectid_1":"4032","stop_desc":"W Warren Ave & Anthony St","label":"6814 - Anthony St / W Warren Ave","direction":"EASTBOUND","stop_code":"WRANEB","stop_lon":"-83.18411","streetname":"W Warren Ave","stop_name":"WARREN & ANTHONY","crossstree":"Anthony St","route":"14","routename":"CROSSTOWN","stop_id":"6814"},"geometry":{"type":"Point","coordinates":[-83.18411409014615,42.34367112769482]}},{"type":"Feature","properties":{"stop_lat":"42.343931","objectid_1":"4033","stop_desc":"W Warren Ave & Anthony St","label":"6815 - Anthony St / W Warren Ave","direction":"WESTBOUND","stop_code":"WRANWB","stop_lon":"-83.184464","streetname":"W Warren Ave","stop_name":"WARREN & ANTHONY","crossstree":"Anthony St","route":"14","routename":"CROSSTOWN","stop_id":"6815"},"geometry":{"type":"Point","coordinates":[-83.18446809027735,42.34393912772664]}},{"type":"Feature","properties":{"stop_lat":"42.34394","objectid_1":"4034","stop_desc":"W Warren Ave & Williamson St","label":"6816 - Williamson St / W Warren Ave","direction":"WESTBOUND","stop_code":"WRWIWB","stop_lon":"-83.182949","streetname":"W Warren Ave","stop_name":"WARREN & WILLIAMSON","crossstree":"Williamson St","route":"14","routename":"CROSSTOWN","stop_id":"6816"},"geometry":{"type":"Point","coordinates":[-83.18295308981102,42.34394812779698]}},{"type":"Feature","properties":{"stop_lat":"42.358438","objectid_1":"4035","stop_desc":"Joy Rd & Hubbell St","label":"6817 - Hubbell St / Joy Rd","direction":"WESTBOUND","stop_code":"JYHUWB","stop_lon":"-83.18754","streetname":"Joy Rd","stop_name":"JOY RD & HUBBELL","crossstree":"Hubbell St","route":"27","routename":"JOY ROAD","stop_id":"6817"},"geometry":{"type":"Point","coordinates":[-83.18754409242199,42.358446130179104]}},{"type":"Feature","properties":{"stop_lat":"42.358438","objectid_1":"4036","stop_desc":"Joy Rd & Mark Twain St","label":"6818 - Mark Twain St / Joy Rd","direction":"WESTBOUND","stop_code":"JYMAWB","stop_lon":"-83.184987","streetname":"Joy Rd","stop_name":"JOY RD & MARK TWAIN","crossstree":"Mark Twain St","route":"27","routename":"JOY ROAD","stop_id":"6818"},"geometry":{"type":"Point","coordinates":[-83.18499109163487,42.35844613029495]}},{"type":"Feature","properties":{"stop_lat":"42.358169","objectid_1":"4037","stop_desc":"Joy Rd & Mark Twain St","label":"6819 - Mark Twain St / Joy Rd","direction":"EASTBOUND","stop_code":"JYMAEB","stop_lon":"-83.184645","streetname":"Joy Rd","stop_name":"JOY RD & MARK TWAIN","crossstree":"Mark Twain St","route":"27","routename":"JOY ROAD","stop_id":"6819"},"geometry":{"type":"Point","coordinates":[-83.18464909150721,42.35817713026244]}},{"type":"Feature","properties":{"stop_lat":"42.358249","objectid_1":"4038","stop_desc":"Joy Rd & Meadowdale St","label":"6820 - Blythe St / Joy Rd","direction":"EASTBOUND","stop_code":"JYMEEB","stop_lon":"-83.180943","streetname":"Joy Rd","stop_name":"JOY RD & MEADOWDALE","crossstree":"Blythe St","route":"27","routename":"JOY ROAD","stop_id":"6820"},"geometry":{"type":"Point","coordinates":[-83.18094709037233,42.358257130444755]}},{"type":"Feature","properties":{"stop_lat":"42.358437","objectid_1":"4039","stop_desc":"Joy Rd & Penn Central Railroad","label":"6821 - Penn Central Railroad / Joy Rd","direction":"WESTBOUND","stop_code":"JYRRWB","stop_lon":"-83.182189","streetname":"Joy Rd","stop_name":"JOY RD & R/R 1","crossstree":"Penn Central Railroad","route":"27","routename":"JOY ROAD","stop_id":"6821"},"geometry":{"type":"Point","coordinates":[-83.182193090772,42.358445130421785]}},{"type":"Feature","properties":{"stop_lat":"42.365718","objectid_1":"4040","stop_desc":"W Chicago St & Mark Twain St","label":"6824 - Mark Twain St / W Chicago St","direction":"WESTBOUND","stop_code":"CGMAWB","stop_lon":"-83.185401","streetname":"W Chicago St","stop_name":"CHICAGO & MARK TWAIN","crossstree":"Mark Twain St","route":"15","routename":"CHICAGO-D","stop_id":"6824"},"geometry":{"type":"Point","coordinates":[-83.18540509236321,42.36572613157659]}},{"type":"Feature","properties":{"stop_lat":"42.365512","objectid_1":"4041","stop_desc":"W Chicago St & Mark Twain St","label":"6825 - Mark Twain St / W Chicago St","direction":"EASTB0UND","stop_code":"CGMAEB","stop_lon":"-83.185376","streetname":"W Chicago St","stop_name":"CHICAGO & MARK TWAIN","crossstree":"Mark Twain St","route":"15","routename":"CHICAGO-D","stop_id":"6825"},"geometry":{"type":"Point","coordinates":[-83.18538009233852,42.365520131540926]}},{"type":"Feature","properties":{"stop_lat":"42.365467","objectid_1":"4042","stop_desc":"W Chicago St & Freeland St","label":"6826 - Freeland St / W Chicago St","direction":"EASTB0UND","stop_code":"CGFREB","stop_lon":"-83.183812","streetname":"W Chicago St","stop_name":"CHICAGO & FREELAND","crossstree":"Freeland St","route":"15","routename":"CHICAGO-D","stop_id":"6826"},"geometry":{"type":"Point","coordinates":[-83.18381609185255,42.365475131603894]}},{"type":"Feature","properties":{"stop_lat":"42.344056","objectid_1":"4043","stop_desc":"","label":"6827 -  /","direction":"EASTBOUND","stop_code":"WRR/WB","stop_lon":"-83.18097","streetname":"","stop_name":"WARREN & R/R 3","crossstree":"","route":"14","routename":"CROSSTOWN","stop_id":"6827"},"geometry":{"type":"Point","coordinates":[-83.18097408921047,42.3440641279075]}},{"type":"Feature","properties":{"stop_lat":"42.343769","objectid_1":"4044","stop_desc":"W Warren Ave & Maple St","label":"6828 - Maple St / W Warren Ave","direction":"EASTBOUND","stop_code":"WRMAEB","stop_lon":"-83.179175","streetname":"W Warren Ave","stop_name":"WARREN & MAPLE","crossstree":"Maple St","route":"14","routename":"CROSSTOWN","stop_id":"6828"},"geometry":{"type":"Point","coordinates":[-83.17917908863346,42.34377712793759]}},{"type":"Feature","properties":{"stop_lat":"42.344109","objectid_1":"4045","stop_desc":"","label":"6829 -  /","direction":"WESTBOUND","stop_code":"WRMAWB","stop_lon":"-83.179566","streetname":"","stop_name":"WARREN & MAPLE","crossstree":"","route":"14","routename":"CROSSTOWN","stop_id":"6829"},"geometry":{"type":"Point","coordinates":[-83.17957008878199,42.34411712798062]}},{"type":"Feature","properties":{"stop_lat":"42.343867","objectid_1":"4046","stop_desc":"W Warren Ave & Jonathan St","label":"6830 - Jonathan St / W Warren Ave","direction":"EASTBOUND","stop_code":"WRJOEB","stop_lon":"-83.173495","streetname":"W Warren Ave","stop_name":"WARREN & JONATHAN","crossstree":"Jonathan St","route":"14","routename":"CROSSTOWN","stop_id":"6830"},"geometry":{"type":"Point","coordinates":[-83.17349908689025,42.343875128212645]}},{"type":"Feature","properties":{"stop_lat":"42.344117","objectid_1":"4047","stop_desc":"W Warren Ave & Jonathan St","label":"6831 - Jonathan St / W Warren Ave","direction":"WESTBOUND","stop_code":"WRJOWB","stop_lon":"-83.173482","streetname":"W Warren Ave","stop_name":"WARREN & JONATHAN","crossstree":"Jonathan St","route":"14","routename":"CROSSTOWN","stop_id":"6831"},"geometry":{"type":"Point","coordinates":[-83.17348608690688,42.344125128257936]}},{"type":"Feature","properties":{"stop_lat":"42.343902","objectid_1":"4048","stop_desc":"W Warren Ave & Hartwell St","label":"6832 - Hartwell St / W Warren Ave","direction":"EASTBOUND","stop_code":"WRHAEB","stop_lon":"-83.170648","streetname":"W Warren Ave","stop_name":"WARREN & HARTWELL","crossstree":"Hartwell St","route":"14","routename":"CROSSTOWN","stop_id":"6832"},"geometry":{"type":"Point","coordinates":[-83.17065208601537,42.34391012834801]}},{"type":"Feature","properties":{"stop_lat":"42.344206","objectid_1":"4049","stop_desc":"W Warren Ave & Oakman Blvd","label":"6833 - Oakman Blvd / W Warren Ave","direction":"WESTBOUND","stop_code":"WROAWB","stop_lon":"-83.169891","streetname":"W Warren Ave","stop_name":"WARREN & OAKMAN","crossstree":"Oakman Blvd","route":"14","routename":"CROSSTOWN","stop_id":"6833"},"geometry":{"type":"Point","coordinates":[-83.16989508580697,42.34421412843666]}},{"type":"Feature","properties":{"stop_lat":"42.344071","objectid_1":"4050","stop_desc":"W Warren Ave & Miller Rd","label":"6835 - Miller Rd / W Warren Ave","direction":"EASTBOUND","stop_code":"WRMIEB","stop_lon":"-83.166862","streetname":"W Warren Ave","stop_name":"WARREN & MILLER","crossstree":"Miller Rd","route":"14","routename":"CROSSTOWN","stop_id":"6835"},"geometry":{"type":"Point","coordinates":[-83.16686608486195,42.34407912854982]}},{"type":"Feature","properties":{"stop_lat":"42.358535","objectid_1":"4051","stop_desc":"Joy Rd & Littlefield Ave","label":"6840 - Littlefield Ave / Joy Rd","direction":"WESTBOUND","stop_code":"JYLIWB","stop_lon":"-83.175335","streetname":"Joy Rd","stop_name":"JOY RD & LITTLEFIELD","crossstree":"Littlefield Ave","route":"27","routename":"JOY ROAD","stop_id":"6840"},"geometry":{"type":"Point","coordinates":[-83.17533908866672,42.35854313075029]}},{"type":"Feature","properties":{"stop_lat":"42.358275","objectid_1":"4052","stop_desc":"Joy Rd & Littlefield Ave","label":"6841 - Littlefield Ave / Joy Rd","direction":"EASTBOUND","stop_code":"JYLIEB","stop_lon":"-83.174907","streetname":"Joy Rd","stop_name":"JOY RD & LITTLEFIELD","crossstree":"Littlefield Ave","route":"27","routename":"JOY ROAD","stop_id":"6841"},"geometry":{"type":"Point","coordinates":[-83.1749110885133,42.35828313072321]}},{"type":"Feature","properties":{"stop_lat":"42.365735","objectid_1":"4053","stop_desc":"W Chicago St & Decatur Ave","label":"6843 - Decatur Ave / W Chicago St","direction":"WESTBOUND","stop_code":"CGDEWB","stop_lon":"-83.180428","streetname":"W Chicago St","stop_name":"CHICAGO & DECATUR","crossstree":"Decatur Ave","route":"15","routename":"CHICAGO-D","stop_id":"6843"},"geometry":{"type":"Point","coordinates":[-83.18043209083116,42.365743131805296]}},{"type":"Feature","properties":{"stop_lat":"42.365467","objectid_1":"4054","stop_desc":"W Chicago St & Kercheval St","label":"6844 - Kercheval St / W Chicago St","direction":"EASTB0UND","stop_code":"CGDEEB","stop_lon":"-83.181344","streetname":"W Chicago St","stop_name":"CHICAGO & DECATUR","crossstree":"Kercheval St","route":"15","routename":"CHICAGO-D","stop_id":"6844"},"geometry":{"type":"Point","coordinates":[-83.18134809109152,42.365475131715904]}},{"type":"Feature","properties":{"stop_lat":"42.365556","objectid_1":"4055","stop_desc":"Schaefer Hwy & W Chicago St","label":"6845 - W Chicago St / Schaefer Hwy","direction":"SOUTHBOUN","stop_code":"SFCHSB","stop_lon":"-83.177959","streetname":"Schaefer Hwy","stop_name":"SCHAEFER & CHICAGO","crossstree":"W Chicago St","route":"41","routename":"SCHAEFER","stop_id":"6845"},"geometry":{"type":"Point","coordinates":[-83.17796309005507,42.365564131885364]}},{"type":"Feature","properties":{"stop_lat":"42.366075","objectid_1":"4056","stop_desc":"Schaefer Hwy & W Chicago St","label":"6847 - W Chicago St / Schaefer Hwy","direction":"NORTHBOUN","stop_code":"SFCHNB","stop_lon":"-83.177642","streetname":"Schaefer Hwy","stop_name":"SCHAEFER & CHICAGO","crossstree":"W Chicago St","route":"41","routename":"SCHAEFER","stop_id":"6847"},"geometry":{"type":"Point","coordinates":[-83.17764609000011,42.36608313199251]}},{"type":"Feature","properties":{"stop_lat":"42.365663","objectid_1":"4057","stop_desc":"W Chicago St & Littlefield St","label":"6850 - Littlefield St / W Chicago St","direction":"EASTB0UND","stop_code":"CGLIEB","stop_lon":"-83.175076","streetname":"W Chicago St","stop_name":"CHICAGO & LITTLEFIELD","crossstree":"Littlefield St","route":"15","routename":"CHICAGO-D","stop_id":"6850"},"geometry":{"type":"Point","coordinates":[-83.17508008917488,42.36567113203531]}},{"type":"Feature","properties":{"stop_lat":"42.365931","objectid_1":"4058","stop_desc":"W Chicago St & Cheyenne St","label":"6851 - Cheyenne St / W Chicago St","direction":"WESTBOUND","stop_code":"CGCHWB","stop_lon":"-83.173976","streetname":"W Chicago St","stop_name":"CHICAGO & CHEYENNE","crossstree":"Cheyenne St","route":"15","routename":"CHICAGO-D","stop_id":"6851"},"geometry":{"type":"Point","coordinates":[-83.17398008885779,42.365939132133114]}},{"type":"Feature","properties":{"stop_lat":"42.358686","objectid_1":"4059","stop_desc":"Joy Rd & Ward St","label":"6852 - Ward St / Joy Rd","direction":"WESTBOUND","stop_code":"JYWAWB","stop_lon":"-83.172879","streetname":"Joy Rd","stop_name":"JOY RD & WARD","crossstree":"Ward St","route":"27","routename":"JOY ROAD","stop_id":"6852"},"geometry":{"type":"Point","coordinates":[-83.17288308792186,42.35869413088861]}},{"type":"Feature","properties":{"stop_lat":"42.358471","objectid_1":"4060","stop_desc":"Joy Rd & Sorrento St","label":"6853 - Sorrento St / Joy Rd","direction":"EASTBOUND","stop_code":"JYSOEB","stop_lon":"-83.171388","streetname":"Joy Rd","stop_name":"JOY RD & SORRENTO","crossstree":"Sorrento St","route":"27","routename":"JOY ROAD","stop_id":"6853"},"geometry":{"type":"Point","coordinates":[-83.17139208744437,42.358479130917914]}},{"type":"Feature","properties":{"stop_lat":"42.358739","objectid_1":"4061","stop_desc":"Joy Rd & Steel Ave","label":"6854 - Steel Ave / Joy Rd","direction":"WESTBOUND","stop_code":"JYSTWB","stop_lon":"-83.170386","streetname":"Joy Rd","stop_name":"JOY RD & STEEL","crossstree":"Steel Ave","route":"27","routename":"JOY ROAD","stop_id":"6854"},"geometry":{"type":"Point","coordinates":[-83.17039008715746,42.35874713101122]}},{"type":"Feature","properties":{"stop_lat":"42.365671","objectid_1":"4062","stop_desc":"W Chicago St & Ward St","label":"6856 - Ward St / W Chicago St","direction":"EASTB0UND","stop_code":"CGWAEB","stop_lon":"-83.172607","streetname":"W Chicago St","stop_name":"CHICAGO & WARD","crossstree":"Ward St","route":"15","routename":"CHICAGO-D","stop_id":"6856"},"geometry":{"type":"Point","coordinates":[-83.17261108841414,42.36567913214883]}},{"type":"Feature","properties":{"stop_lat":"42.365939","objectid_1":"4063","stop_desc":"W Chicago St & Sorrento St","label":"6857 - Sorrento St / W Chicago St","direction":"WESTBOUND","stop_code":"CGSOWB","stop_lon":"-83.171886","streetname":"W Chicago St","stop_name":"CHICAGO & SORRENTO","crossstree":"Sorrento St","route":"15","routename":"CHICAGO-D","stop_id":"6857"},"geometry":{"type":"Point","coordinates":[-83.17189008821393,42.365947132229365]}},{"type":"Feature","properties":{"stop_lat":"42.365715","objectid_1":"4064","stop_desc":"W Chicago St & Steel St","label":"6858 - Steel St / W Chicago St","direction":"EASTB0UND","stop_code":"CGSTEB","stop_lon":"-83.170115","streetname":"W Chicago St","stop_name":"CHICAGO & STEEL","crossstree":"Steel St","route":"15","routename":"CHICAGO-D","stop_id":"6858"},"geometry":{"type":"Point","coordinates":[-83.17011908764928,42.36572313226974]}},{"type":"Feature","properties":{"stop_lat":"42.366002","objectid_1":"4065","stop_desc":"W Chicago St & Iris St","label":"6859 - Iris St / W Chicago St","direction":"WESTBOUND","stop_code":"CGIRWB","stop_lon":"-83.170017","streetname":"W Chicago St","stop_name":"CHICAGO & IRIS","crossstree":"Iris St","route":"15","routename":"CHICAGO-D","stop_id":"6859"},"geometry":{"type":"Point","coordinates":[-83.17002108764277,42.36601013232541]}},{"type":"Feature","properties":{"stop_lat":"42.416153","objectid_1":"4066","stop_desc":"W Mcnichols Rd & Hubbell St","label":"6862 - Hubbell St / W Mcnichols Rd","direction":"WESTBOUND","stop_code":"MCHUWB","stop_lon":"-83.189965","streetname":"W Mcnichols Rd","stop_name":"MC NICHOLS & HUBBELL","crossstree":"Hubbell St","route":"32","routename":"McNICHOLS","stop_id":"6862"},"geometry":{"type":"Point","coordinates":[-83.18996909794063,42.41616114037062]}},{"type":"Feature","properties":{"stop_lat":"42.416064","objectid_1":"4067","stop_desc":"W Mcnichols Rd & Strathmoor St","label":"6867 - Strathmoor St / W Mcnichols Rd","direction":"EASTBOUND","stop_code":"MCSTEB","stop_lon":"-83.18818","streetname":"W Mcnichols Rd","stop_name":"McNICHOLS & STRATHMOOR","crossstree":"Strathmoor St","route":"32","routename":"McNICHOLS","stop_id":"6867"},"geometry":{"type":"Point","coordinates":[-83.18818409738266,42.4160721404359]}},{"type":"Feature","properties":{"stop_lat":"42.416278","objectid_1":"4068","stop_desc":"W Mcnichols Rd & Freeland St","label":"6868 - Freeland St / W Mcnichols Rd","direction":"WESTBOUND","stop_code":"MCFRWB","stop_lon":"-83.186321","streetname":"W Mcnichols Rd","stop_name":"MC NICHOLS & FREELAND","crossstree":"Freeland St","route":"32","routename":"McNICHOLS","stop_id":"6868"},"geometry":{"type":"Point","coordinates":[-83.1863250968269,42.416286140558555]}},{"type":"Feature","properties":{"stop_lat":"42.416126","objectid_1":"4069","stop_desc":"W Mcnichols Rd & Ardmore St","label":"6869 - Ardmore St / W Mcnichols Rd","direction":"EASTBOUND","stop_code":"MCAREB","stop_lon":"-83.184866","streetname":"W Mcnichols Rd","stop_name":"MC NICHOLS & ARDMORE","crossstree":"Ardmore St","route":"32","routename":"McNICHOLS","stop_id":"6869"},"geometry":{"type":"Point","coordinates":[-83.18487009636547,42.41613414059765]}},{"type":"Feature","properties":{"stop_lat":"42.416439","objectid_1":"4070","stop_desc":"W Mcnichols Rd & Stansbury St","label":"6870 - Stansbury St / W Mcnichols Rd","direction":"WESTBOUND","stop_code":"MCSTWB","stop_lon":"-83.183998","streetname":"W Mcnichols Rd","stop_name":"MC NICHOLS & STANSBURY","crossstree":"Stansbury St","route":"32","routename":"McNICHOLS","stop_id":"6870"},"geometry":{"type":"Point","coordinates":[-83.18400209612366,42.41644714069286]}},{"type":"Feature","properties":{"stop_lat":"42.416439","objectid_1":"4071","stop_desc":"W Mcnichols Rd & Lesure St","label":"6871 - Lesure St / W Mcnichols Rd","direction":"WESTBOUND","stop_code":"MCLEWB","stop_lon":"-83.182335","streetname":"W Mcnichols Rd","stop_name":"MC NICHOLS & LESURE","crossstree":"Lesure St","route":"32","routename":"McNICHOLS","stop_id":"6871"},"geometry":{"type":"Point","coordinates":[-83.18233909561066,42.416447140768476]}},{"type":"Feature","properties":{"stop_lat":"42.416162","objectid_1":"4072","stop_desc":"W Mcnichols Rd & Lesure St","label":"6872 - Lesure St / W Mcnichols Rd","direction":"EASTBOUND","stop_code":"MCLEEB","stop_lon":"-83.181919","streetname":"W Mcnichols Rd","stop_name":"MC NICHOLS & LESURE","crossstree":"Lesure St","route":"32","routename":"McNICHOLS","stop_id":"6872"},"geometry":{"type":"Point","coordinates":[-83.18192309545935,42.416170140738]}},{"type":"Feature","properties":{"stop_lat":"42.419686","objectid_1":"4073","stop_desc":"W Outer Dr & Mark Twain St","label":"6873 - Mark Twain St / W Outer Dr","direction":"SOUTHBOUN","stop_code":"WOMAEB","stop_lon":"-83.187311","streetname":"W Outer Dr","stop_name":"OUTER DR & MARK TWAIN","crossstree":"Mark Twain St","route":"16","routename":"DEXTER","stop_id":"6873"},"geometry":{"type":"Point","coordinates":[-83.18731509741455,42.41969414112138]}},{"type":"Feature","properties":{"stop_lat":"42.420008","objectid_1":"4074","stop_desc":"W Outer Dr & Freeland St","label":"6874 - Freeland St / W Outer Dr","direction":"NORTHBOUN","stop_code":"WOFRWB","stop_lon":"-83.186443","streetname":"W Outer Dr","stop_name":"OUTER DR & FREELAND","crossstree":"Freeland St","route":"16","routename":"DEXTER","stop_id":"6874"},"geometry":{"type":"Point","coordinates":[-83.18644709717344,42.42001614121824]}},{"type":"Feature","properties":{"stop_lat":"42.419767","objectid_1":"4075","stop_desc":"W Outer Dr & Ardmore St","label":"6875 - Ardmore St / W Outer Dr","direction":"SOUTHBOUN","stop_code":"WOAREB","stop_lon":"-83.184609","streetname":"W Outer Dr","stop_name":"OUTER DR & ARDMORE","crossstree":"Ardmore St","route":"16","routename":"DEXTER","stop_id":"6875"},"geometry":{"type":"Point","coordinates":[-83.18461309658775,42.41977514125863]}},{"type":"Feature","properties":{"stop_lat":"42.420035","objectid_1":"4076","stop_desc":"W Outer Dr & Lesure St","label":"6876 - Lesure St / W Outer Dr","direction":"NORTHBOUN","stop_code":"WOLEWB","stop_lon":"-83.182664","streetname":"W Outer Dr","stop_name":"OUTER DR & LESURE","crossstree":"Lesure St","route":"16","routename":"DEXTER","stop_id":"6876"},"geometry":{"type":"Point","coordinates":[-83.18266809600996,42.420043141394885]}},{"type":"Feature","properties":{"stop_lat":"42.416528","objectid_1":"4077","stop_desc":"W Mcnichols Rd & Snowden St","label":"6877 - Snowden St / W Mcnichols Rd","direction":"WESTBOUND","stop_code":"MCSNWB","stop_lon":"-83.17759","streetname":"W Mcnichols Rd","stop_name":"MC NICHOLS & SNOWDEN","crossstree":"Snowden St","route":"32","routename":"McNICHOLS","stop_id":"6877"},"geometry":{"type":"Point","coordinates":[-83.17759409415424,42.41653614100004]}},{"type":"Feature","properties":{"stop_lat":"42.416268","objectid_1":"4078","stop_desc":"W Mcnichols Rd & Littlefield St","label":"6878 - Littlefield St / W Mcnichols Rd","direction":"EASTBOUND","stop_code":"MCLIEB","stop_lon":"-83.176111","streetname":"W Mcnichols Rd","stop_name":"MC NICHOLS & LITTLEFIEL","crossstree":"Littlefield St","route":"32","routename":"McNICHOLS","stop_id":"6878"},"geometry":{"type":"Point","coordinates":[-83.17611509367644,42.41627614102092]}},{"type":"Feature","properties":{"stop_lat":"42.416268","objectid_1":"4079","stop_desc":"W Mcnichols Rd & Ward St","label":"6879 - Ward St / W Mcnichols Rd","direction":"EASTBOUND","stop_code":"MCWAEB","stop_lon":"-83.173873","streetname":"W Mcnichols Rd","stop_name":"MC NICHOLS & WARD","crossstree":"Ward St","route":"32","routename":"McNICHOLS","stop_id":"6879"},"geometry":{"type":"Point","coordinates":[-83.17387709298605,42.41627614112266]}},{"type":"Feature","properties":{"stop_lat":"42.416483","objectid_1":"4080","stop_desc":"W Mcnichols Rd & Ward St","label":"6880 - Ward St / W Mcnichols Rd","direction":"WESTBOUND","stop_code":"MCWAWB","stop_lon":"-83.175084","streetname":"W Mcnichols Rd","stop_name":"MC NICHOLS & WARD","crossstree":"Ward St","route":"32","routename":"McNICHOLS","stop_id":"6880"},"geometry":{"type":"Point","coordinates":[-83.17508809337744,42.41649114110592]}},{"type":"Feature","properties":{"stop_lat":"42.420088","objectid_1":"4081","stop_desc":"W Outer Dr & Santa Clara St","label":"6885 - Santa Clara St / W Outer Dr","direction":"SOUTHBOUN","stop_code":"WOSASB","stop_lon":"-83.177284","streetname":"W Outer Dr","stop_name":"OUTER DR & SANTA CLARA","crossstree":"Santa Clara St","route":"72","routename":"DEXTER LI","stop_id":"6885"},"geometry":{"type":"Point","coordinates":[-83.17728809435465,42.42009614164897]}},{"type":"Feature","properties":{"stop_lat":"42.420615","objectid_1":"4082","stop_desc":"W Outer Dr & James Couzens Fwy","label":"6888 - James Couzens Fwy / W Outer Dr","direction":"NORTHBOUN","stop_code":"WOJAWB","stop_lon":"-83.176856","streetname":"W Outer Dr","stop_name":"OUTER DR & JAMES COUZENS","crossstree":"James Couzens Fwy","route":"16","routename":"DEXTER","stop_id":"6888"},"geometry":{"type":"Point","coordinates":[-83.17686009426625,42.42062314176238]}},{"type":"Feature","properties":{"stop_lat":"42.421009","objectid_1":"4083","stop_desc":"W Outer Dr & James Couzens Fwy","label":"6889 - James Couzens Fwy / W Outer Dr","direction":"SOUTHBOUN","stop_code":"WOJAEB","stop_lon":"-83.175584","streetname":"W Outer Dr","stop_name":"OUTER DR & JAMES COUZENS","crossstree":"James Couzens Fwy","route":"16","routename":"DEXTER","stop_id":"6889"},"geometry":{"type":"Point","coordinates":[-83.17558809390643,42.42101714189045]}},{"type":"Feature","properties":{"stop_lat":"42.421876","objectid_1":"4084","stop_desc":"W Outer Dr & Thatcher St","label":"6892 - Thatcher St / W Outer Dr","direction":"NORTHBOUN","stop_code":"WOTHWB","stop_lon":"-83.175278","streetname":"W Outer Dr","stop_name":"OUTER DRIVE & THATCHER","crossstree":"Thatcher St","route":"16","routename":"DEXTER","stop_id":"6892"},"geometry":{"type":"Point","coordinates":[-83.1752820938838,42.42188414205901]}},{"type":"Feature","properties":{"stop_lat":"42.422055","objectid_1":"4085","stop_desc":"W Outer Dr & Thatcher St","label":"6893 - Thatcher St / W Outer Dr","direction":"SOUTHBOUN","stop_code":"WOTHEB","stop_lon":"-83.174947","streetname":"W Outer Dr","stop_name":"OUTER DRIVE & THATCHER","crossstree":"Thatcher St","route":"16","routename":"DEXTER","stop_id":"6893"},"geometry":{"type":"Point","coordinates":[-83.17495109379654,42.422063142106]}},{"type":"Feature","properties":{"stop_lat":"42.423567","objectid_1":"4086","stop_desc":"Curtis St & W Outer Dr","label":"6894 - W Outer Dr / Curtis St","direction":"SOUTHBOUN","stop_code":"CUOUEB","stop_lon":"-83.174935","streetname":"Curtis St","stop_name":"CURTIS & OUTER DRIVE","crossstree":"W Outer Dr","route":"16","routename":"DEXTER","stop_id":"6894"},"geometry":{"type":"Point","coordinates":[-83.17493909391803,42.42357514237613]}},{"type":"Feature","properties":{"stop_lat":"42.423558","objectid_1":"4087","stop_desc":"W Outer Dr & Curtis St","label":"6895 - Curtis St / W Outer Dr","direction":"NORTHBOUN","stop_code":"WOCUWB","stop_lon":"-83.175375","streetname":"W Outer Dr","stop_name":"OUTER DR & CURTIS","crossstree":"Curtis St","route":"16","routename":"DEXTER","stop_id":"6895"},"geometry":{"type":"Point","coordinates":[-83.17537909405304,42.42356614235458]}},{"type":"Feature","properties":{"stop_lat":"42.423835","objectid_1":"4088","stop_desc":"Curtis St & Steel St","label":"6897 - Steel St / Curtis St","direction":"NORTHBOUN","stop_code":"CUSTWB","stop_lon":"-83.172758","streetname":"Curtis St","stop_name":"CURTIS & STEEL","crossstree":"Steel St","route":"16","routename":"DEXTER","stop_id":"6897"},"geometry":{"type":"Point","coordinates":[-83.17276209326863,42.42384314252292]}},{"type":"Feature","properties":{"stop_lat":"42.423566","objectid_1":"4089","stop_desc":"Curtis St & Steel St","label":"6898 - Steel St / Curtis St","direction":"SOUTHBOUN","stop_code":"CUSTEB","stop_lon":"-83.172452","streetname":"Curtis St","stop_name":"CURTIS & STEEL","crossstree":"Steel St","route":"16","routename":"DEXTER","stop_id":"6898"},"geometry":{"type":"Point","coordinates":[-83.17245609315191,42.42357414248887]}},{"type":"Feature","properties":{"stop_lat":"42.384954","objectid_1":"4090","stop_desc":"Schoolcraft & Virgil St","label":"6933 - Virgil St / Schoolcraft","direction":"EASTBOUND","stop_code":"STVIEB","stop_lon":"-83.270516","streetname":"Schoolcraft","stop_name":"SCHOOLCRAFT & VIRGIL","crossstree":"Virgil St","route":"43","routename":"SCHOOLCRA","stop_id":"6933"},"geometry":{"type":"Point","coordinates":[-83.27052012019301,42.3849621311405]}},{"type":"Feature","properties":{"stop_lat":"42.385839","objectid_1":"4091","stop_desc":"Schoolcraft & Virgil St","label":"6934 - Virgil St / Schoolcraft","direction":"WESTBOUND","stop_code":"STVIWB","stop_lon":"-83.271495","streetname":"Schoolcraft","stop_name":"SCHOOLCRAFT & VIRGIL","crossstree":"Virgil St","route":"43","routename":"SCHOOLCRA","stop_id":"6934"},"geometry":{"type":"Point","coordinates":[-83.27149912056802,42.38584713125376]}},{"type":"Feature","properties":{"stop_lat":"42.384613","objectid_1":"4092","stop_desc":"Schoolcraft Rd & Appleton St","label":"6935 - Appleton St / Schoolcraft Rd","direction":"EASTBOUND","stop_code":"STAPEB","stop_lon":"-83.2723","streetname":"Schoolcraft Rd","stop_name":"SCHOOLCRAFT & APPLETON","crossstree":"Appleton St","route":"43","routename":"SCHOOLCRA","stop_id":"6935"},"geometry":{"type":"Point","coordinates":[-83.27230412071457,42.38462113099847]}},{"type":"Feature","properties":{"stop_lat":"42.384405","objectid_1":"4093","stop_desc":"Telegraph Rd & Schoolcraft Rd","label":"6936 - Telegraph Rd / Schoolcraft Rd","direction":"WESTBOUND","stop_code":"TESTWB","stop_lon":"-83.276199","streetname":"Schoolcraft Rd","stop_name":"Telegraph & Schoolcraft","crossstree":"Telegraph Rd","route":"43","routename":"SCHOOLCRA","stop_id":"6936"},"geometry":{"type":"Point","coordinates":[-83.276203121899,42.384413130783834]}},{"type":"Feature","properties":{"stop_lat":"42.385829","objectid_1":"4094","stop_desc":"Schoolcraft & Riverview St","label":"6938 - Riverview St / Schoolcraft","direction":"WESTBOUND","stop_code":"STRIWB","stop_lon":"-83.273181","streetname":"Schoolcraft","stop_name":"SCHOOLCRAFT & RIVERVIEW","crossstree":"Riverview St","route":"43","routename":"SCHOOLCRA","stop_id":"6938"},"geometry":{"type":"Point","coordinates":[-83.27318512108685,42.38583713117524]}},{"type":"Feature","properties":{"stop_lat":"42.385932","objectid_1":"4095","stop_desc":"Schoolcraft Ave & Bramell St","label":"6939 - Bramell St / Schoolcraft Ave","direction":"WESTBOUND","stop_code":"STBRWB","stop_lon":"-83.265383","streetname":"Schoolcraft Ave","stop_name":"SCHOOLCRAFT & BRAMELL","crossstree":"Bramell St","route":"43","routename":"SCHOOLCRA","stop_id":"6939"},"geometry":{"type":"Point","coordinates":[-83.26538711869196,42.38594013154866]}},{"type":"Feature","properties":{"stop_lat":"42.386023","objectid_1":"4096","stop_desc":"Schoolcraft & Lamphere St","label":"6943 - Lamphere St / Schoolcraft","direction":"WESTBOUND","stop_code":"STLAWB","stop_lon":"-83.261851","streetname":"Schoolcraft","stop_name":"SCHOOLCRAFT & LAMPHERE","crossstree":"Lamphere St","route":"43","routename":"SCHOOLCRA","stop_id":"6943"},"geometry":{"type":"Point","coordinates":[-83.26185511761082,42.386031131725744]}},{"type":"Feature","properties":{"stop_lat":"42.38496","objectid_1":"4097","stop_desc":"Schoolcraft Ave & Dolphin St","label":"6944 - Dolphin St / Schoolcraft Ave","direction":"EASTBOUND","stop_code":"STDOEB","stop_lon":"-83.258745","streetname":"Schoolcraft Ave","stop_name":"SCHOOLCRAFT & DOLPHIN","crossstree":"Dolphin St","route":"43","routename":"SCHOOLCRA","stop_id":"6944"},"geometry":{"type":"Point","coordinates":[-83.25874911656543,42.38496813167745]}},{"type":"Feature","properties":{"stop_lat":"42.386033","objectid_1":"4098","stop_desc":"Schoolcraft & Dolphin St","label":"6945 - Dolphin St / Schoolcraft","direction":"WESTBOUND","stop_code":"STDOWB","stop_lon":"-83.259235","streetname":"Schoolcraft","stop_name":"SCHOOLCRAFT & DOLPHIN","crossstree":"Dolphin St","route":"43","routename":"SCHOOLCRA","stop_id":"6945"},"geometry":{"type":"Point","coordinates":[-83.25923911680536,42.38604113184661]}},{"type":"Feature","properties":{"stop_lat":"42.385944","objectid_1":"4099","stop_desc":"Schoolcraft & Rockdale St","label":"6946 - Rockdale St / Schoolcraft","direction":"WESTBOUND","stop_code":"STROWB","stop_lon":"-83.25783","streetname":"Schoolcraft","stop_name":"SCHOOLCRAFT & ROCKDALE","crossstree":"Rockdale St","route":"43","routename":"SCHOOLCRA","stop_id":"6946"},"geometry":{"type":"Point","coordinates":[-83.25783411636486,42.38595213189466]}},{"type":"Feature","properties":{"stop_lat":"42.386035","objectid_1":"4100","stop_desc":"Schoolcraft & Jason St","label":"6948 - Jason St / Schoolcraft","direction":"WESTBOUND","stop_code":"STAWB","stop_lon":"-83.25464","streetname":"Schoolcraft","stop_name":"SCHOOLCRAFT & JASON","crossstree":"Jason St","route":"43","routename":"SCHOOLCRA","stop_id":"6948"},"geometry":{"type":"Point","coordinates":[-83.25464411538908,42.3860431320561]}},{"type":"Feature","properties":{"stop_lat":"42.386126","objectid_1":"4101","stop_desc":"Schoolcraft & Bentler St","label":"6949 - Bentler St / Schoolcraft","direction":"WESTBOUND","stop_code":"STBEWB","stop_lon":"-83.25178","streetname":"Schoolcraft","stop_name":"SCHOOLCRAFT & BENTLER","crossstree":"Bentler St","route":"43","routename":"SCHOOLCRA","stop_id":"6949"},"geometry":{"type":"Point","coordinates":[-83.25178411451503,42.3861341322025]}},{"type":"Feature","properties":{"stop_lat":"42.384865","objectid_1":"4102","stop_desc":"Schoolcraft Ave & Bentler St","label":"6950 - Bentler St / Schoolcraft Ave","direction":"EASTBOUND","stop_code":"STBEEB","stop_lon":"-83.251265","streetname":"Schoolcraft Ave","stop_name":"SCHOOLCRAFT & BENTLER","crossstree":"Bentler St","route":"43","routename":"SCHOOLCRA","stop_id":"6950"},"geometry":{"type":"Point","coordinates":[-83.25126911425193,42.384873132000976]}},{"type":"Feature","properties":{"stop_lat":"42.386136","objectid_1":"4103","stop_desc":"Schoolcraft & Blackstone St","label":"6951 - Blackstone St / Schoolcraft","direction":"WESTBOUND","stop_code":"STBLWB","stop_lon":"-83.249176","streetname":"Schoolcraft","stop_name":"SCHOOLCRAFT & BLACKSTONE","crossstree":"Blackstone St","route":"43","routename":"SCHOOLCRA","stop_id":"6951"},"geometry":{"type":"Point","coordinates":[-83.24918011371321,42.386144132322826]}},{"type":"Feature","properties":{"stop_lat":"42.384893","objectid_1":"4104","stop_desc":"Schoolcraft Ave & Blackstone Ave","label":"6952 - Blackstone Ave / Schoolcraft Ave","direction":"EASTBOUND","stop_code":"STBLEB","stop_lon":"-83.248625","streetname":"Schoolcraft Ave","stop_name":"SCHOOLCRAFT & BLACKSTONE","crossstree":"Blackstone Ave","route":"43","routename":"SCHOOLCRA","stop_id":"6952"},"geometry":{"type":"Point","coordinates":[-83.2486291134404,42.3849011321261]}},{"type":"Feature","properties":{"stop_lat":"42.386236","objectid_1":"4105","stop_desc":"Schoolcraft & Patton St","label":"6953 - Patton St / Schoolcraft","direction":"WESTBOUND","stop_code":"STPAWB","stop_lon":"-83.243505","streetname":"Schoolcraft","stop_name":"SCHOOLCRAFT & PATTON","crossstree":"Patton St","route":"43","routename":"SCHOOLCRA","stop_id":"6953"},"geometry":{"type":"Point","coordinates":[-83.24350911197331,42.386244132598684]}},{"type":"Feature","properties":{"stop_lat":"42.38612","objectid_1":"4106","stop_desc":"Schoolcraft & Fielding St","label":"6954 - FIELDING / SCHOOLCRAFT","direction":"EASTBOUND","stop_code":"STFIEB","stop_lon":"-83.242258","streetname":"SCHOOLCRAFT","stop_name":"SCHOOLCRAFT & FIELDING","crossstree":"FIELDING","route":"43","routename":"SCHOOLCRA","stop_id":"6954"},"geometry":{"type":"Point","coordinates":[-83.24226211157925,42.38612813263473]}},{"type":"Feature","properties":{"stop_lat":"42.386335","objectid_1":"4107","stop_desc":"Schoolcraft & Stout St","label":"6955 - Stout St / Schoolcraft","direction":"WESTBOUND","stop_code":"STSTWB","stop_lon":"-83.241378","streetname":"Schoolcraft","stop_name":"SCHOOLCRAFT & STOUT","crossstree":"Stout St","route":"43","routename":"SCHOOLCRA","stop_id":"6955"},"geometry":{"type":"Point","coordinates":[-83.24138211132579,42.3863431327131]}},{"type":"Feature","properties":{"stop_lat":"42.386121","objectid_1":"4108","stop_desc":"Schoolcraft & Kentfield St","label":"6956 - KENTFIELD / SCHOOLCRAFT","direction":"EASTBOUND","stop_code":"STKEEB","stop_lon":"-83.240021","streetname":"SCHOOLCRAFT","stop_name":"SCHOOLCRAFT & KENTFIELD","crossstree":"KENTFIELD","route":"43","routename":"SCHOOLCRA","stop_id":"6956"},"geometry":{"type":"Point","coordinates":[-83.24002511088976,42.3861291327367]}},{"type":"Feature","properties":{"stop_lat":"42.386282","objectid_1":"4109","stop_desc":"Schoolcraft & Heyden St","label":"6957 - Burt Rd / Schoolcraft","direction":"WESTBOUND","stop_code":"STHEWB","stop_lon":"-83.239276","streetname":"Schoolcraft","stop_name":"SCHOOLCRAFT & HEYDEN","crossstree":"Burt Rd","route":"43","routename":"SCHOOLCRA","stop_id":"6957"},"geometry":{"type":"Point","coordinates":[-83.23928011067343,42.386290132799296]}},{"type":"Feature","properties":{"stop_lat":"42.386113","objectid_1":"4110","stop_desc":"Schoolcraft & Vaughan St","label":"6958 - Vaughan St / Schoolcraft","direction":"EASTBOUND","stop_code":"STVAEB","stop_lon":"-83.237797","streetname":"Schoolcraft","stop_name":"SCHOOLCRAFT & VAUGHAN","crossstree":"Vaughan St","route":"43","routename":"SCHOOLCRA","stop_id":"6958"},"geometry":{"type":"Point","coordinates":[-83.23780111020346,42.38612113283646]}},{"type":"Feature","properties":{"stop_lat":"42.386274","objectid_1":"4111","stop_desc":"Schoolcraft Ave & Evergreen Rd","label":"6959 - Plainview Ave / W Schoolcraft","direction":"EASTBOUND","stop_code":"STEVEB","stop_lon":"-83.236538","streetname":"W Schoolcraft","stop_name":"SCHOOLCRAFT & EVERGREEN","crossstree":"Plainview Ave","route":"43","routename":"SCHOOLCRA","stop_id":"6959"},"geometry":{"type":"Point","coordinates":[-83.23654210982863,42.38628213292245]}},{"type":"Feature","properties":{"stop_lat":"42.386427","objectid_1":"4112","stop_desc":"W Schoolcraft & Auburn Ave","label":"6960 - Auburn Ave / W Schoolcraft","direction":"WESTBOUND","stop_code":"STAUWB","stop_lon":"-83.234692","streetname":"W Schoolcraft","stop_name":"SCHOOLCRAFT & AUBURN","crossstree":"Auburn Ave","route":"43","routename":"SCHOOLCRA","stop_id":"6960"},"geometry":{"type":"Point","coordinates":[-83.23469610927222,42.386435133033686]}},{"type":"Feature","properties":{"stop_lat":"42.386266","objectid_1":"4113","stop_desc":"W Schoolcraft & Minock St","label":"6961 - Minock St / W Schoolcraft","direction":"EASTBOUND","stop_code":"STMIEB","stop_lon":"-83.233042","streetname":"W Schoolcraft","stop_name":"SCHOOLCRAFT & MINOCK","crossstree":"Minock St","route":"43","routename":"SCHOOLCRA","stop_id":"6961"},"geometry":{"type":"Point","coordinates":[-83.23304610875023,42.386274133080015]}},{"type":"Feature","properties":{"stop_lat":"42.386535","objectid_1":"4114","stop_desc":"W Schoolcraft & Westwood St","label":"6962 - Westwood St / W Schoolcraft","direction":"WESTBOUND","stop_code":"STWEWB","stop_lon":"-83.23215","streetname":"W Schoolcraft","stop_name":"SCHOOLCRAFT & WESTWOOD","crossstree":"Westwood St","route":"43","routename":"SCHOOLCRA","stop_id":"6962"},"geometry":{"type":"Point","coordinates":[-83.23215410849753,42.3865431331686]}},{"type":"Feature","properties":{"stop_lat":"42.386365","objectid_1":"4115","stop_desc":"W Schoolcraft & Grandville Ave","label":"6963 - Grandville Ave / W Schoolcraft","direction":"EASTBOUND","stop_code":"STGREB","stop_lon":"-83.230817","streetname":"W Schoolcraft","stop_name":"SCHOOLCRAFT & GRANDVILLE","crossstree":"Grandville Ave","route":"43","routename":"SCHOOLCRA","stop_id":"6963"},"geometry":{"type":"Point","coordinates":[-83.23082110807249,42.386373133198916]}},{"type":"Feature","properties":{"stop_lat":"42.386634","objectid_1":"4116","stop_desc":"W Schoolcraft & Piedmont St","label":"6965 - Piedmont St / W Schoolcraft","direction":"WESTBOUND","stop_code":"STPIWB","stop_lon":"-83.229876","streetname":"W Schoolcraft","stop_name":"SCHOOLCRAFT & PIEDMONT","crossstree":"Piedmont St","route":"43","routename":"SCHOOLCRA","stop_id":"6965"},"geometry":{"type":"Point","coordinates":[-83.22988010780466,42.386642133289726]}},{"type":"Feature","properties":{"stop_lat":"42.386366","objectid_1":"4117","stop_desc":"W Schoolcraft & Warwick Ave","label":"6966 - Warwick Ave / W Schoolcraft","direction":"EASTBOUND","stop_code":"STWAEB","stop_lon":"-83.228324","streetname":"W Schoolcraft","stop_name":"SCHOOLCRAFT & WARWICK","crossstree":"Warwick Ave","route":"43","routename":"SCHOOLCRA","stop_id":"6966"},"geometry":{"type":"Point","coordinates":[-83.228328107304,42.386374133312465]}},{"type":"Feature","properties":{"stop_lat":"42.386635","objectid_1":"4118","stop_desc":"W Schoolcraft & Artesian Ave","label":"6967 - Artesian Ave / W Schoolcraft","direction":"WESTBOUND","stop_code":"STARWB","stop_lon":"-83.22742","streetname":"W Schoolcraft","stop_name":"SCHOOLCRAFT & ARTESIAN","crossstree":"Artesian Ave","route":"43","routename":"SCHOOLCRA","stop_id":"6967"},"geometry":{"type":"Point","coordinates":[-83.22742410704748,42.38664313340159]}},{"type":"Feature","properties":{"stop_lat":"42.386367","objectid_1":"4119","stop_desc":"W Schoolcraft & Stahelin Ave","label":"6968 - Stahelin Ave / W Schoolcraft","direction":"EASTBOUND","stop_code":"STSTEB","stop_lon":"-83.225721","streetname":"W Schoolcraft","stop_name":"SCHOOLCRAFT & STAHELIN","crossstree":"Stahelin Ave","route":"43","routename":"SCHOOLCRA","stop_id":"6968"},"geometry":{"type":"Point","coordinates":[-83.2257251065015,42.386375133431024]}},{"type":"Feature","properties":{"stop_lat":"42.386635","objectid_1":"4120","stop_desc":"W Schoolcraft & Glastonbury Ave","label":"6969 - Glastonbury Ave / W Schoolcraft","direction":"WESTBOUND","stop_code":"STGLWB","stop_lon":"-83.224853","streetname":"W Schoolcraft","stop_name":"SCHOOLCRAFT & GLASTONBURY","crossstree":"Glastonbury Ave","route":"43","routename":"SCHOOLCRA","stop_id":"6969"},"geometry":{"type":"Point","coordinates":[-83.22485710625605,42.38664313351833]}},{"type":"Feature","properties":{"stop_lat":"42.386394","objectid_1":"4121","stop_desc":"W Schoolcraft & Greenview Rd","label":"6970 - Greenview Rd / W Schoolcraft","direction":"EASTBOUND","stop_code":"STGREB","stop_lon":"-83.22341","streetname":"W Schoolcraft","stop_name":"SCHOOLCRAFT & GREENVIEW","crossstree":"Greenview Rd","route":"43","routename":"SCHOOLCRA","stop_id":"6970"},"geometry":{"type":"Point","coordinates":[-83.22341410579124,42.38640213354092]}},{"type":"Feature","properties":{"stop_lat":"42.386466","objectid_1":"4122","stop_desc":"W Schoolcraft & Ashton Rd","label":"6974 - Ashton Rd / W Schoolcraft","direction":"EASTBOUND","stop_code":"STASEB","stop_lon":"-83.218534","streetname":"W Schoolcraft","stop_name":"SCHOOLCRAFT & ASHTON","crossstree":"Ashton Rd","route":"43","routename":"SCHOOLCRA","stop_id":"6974"},"geometry":{"type":"Point","coordinates":[-83.21853810429384,42.38647413377549]}},{"type":"Feature","properties":{"stop_lat":"42.386896","objectid_1":"4123","stop_desc":"Schoolcraft Ave & Archdale St","label":"6979 - Archdale St / Schoolcraft Ave","direction":"WESTBOUND","stop_code":"STARWB","stop_lon":"-83.216358","streetname":"Schoolcraft Ave","stop_name":"SCHOOLCRAFT & ARCHDALE","crossstree":"Archdale St","route":"43","routename":"SCHOOLCRA","stop_id":"6979"},"geometry":{"type":"Point","coordinates":[-83.21636210365848,42.386904133951106]}},{"type":"Feature","properties":{"stop_lat":"42.386932","objectid_1":"4124","stop_desc":"Schoolcraft St & Longacre St","label":"6980 - Longacre St / Schoolcraft St","direction":"WESTBOUND","stop_code":"STLOWB","stop_lon":"-83.215356","streetname":"Schoolcraft St","stop_name":"SCHOOLCRAFT & LONGACRE","crossstree":"Longacre St","route":"43","routename":"SCHOOLCRA","stop_id":"6980"},"geometry":{"type":"Point","coordinates":[-83.21536010335252,42.38694013400313]}},{"type":"Feature","properties":{"stop_lat":"42.386664","objectid_1":"4125","stop_desc":"Schoolcraft Ave & Longacre St","label":"6981 - Longacre St / Schoolcraft Ave","direction":"EASTBOUND","stop_code":"STLOEB","stop_lon":"-83.214964","streetname":"Schoolcraft Ave","stop_name":"SCHOOLCRAFT & LONGACRE","crossstree":"Longacre St","route":"43","routename":"SCHOOLCRA","stop_id":"6981"},"geometry":{"type":"Point","coordinates":[-83.21496810320946,42.38667213397313]}},{"type":"Feature","properties":{"stop_lat":"42.386771","objectid_1":"4126","stop_desc":"Schoolcraft St & Memorial St","label":"6982 - Memorial St / Schoolcraft St","direction":"EASTBOUND","stop_code":"STMEEB","stop_lon":"-83.212324","streetname":"Schoolcraft St","stop_name":"SCHOOLCRAFT & MEMORIAL","crossstree":"Memorial St","route":"43","routename":"SCHOOLCRA","stop_id":"6982"},"geometry":{"type":"Point","coordinates":[-83.21232810240433,42.38677913411224]}},{"type":"Feature","properties":{"stop_lat":"42.38704","objectid_1":"4127","stop_desc":"Schoolcraft St & Abington Ave","label":"6983 - Abington Ave / Schoolcraft St","direction":"WESTBOUND","stop_code":"STABWB","stop_lon":"-83.211542","streetname":"Schoolcraft St","stop_name":"SCHOOLCRAFT & ABINGTON","crossstree":"Abington Ave","route":"43","routename":"SCHOOLCRA","stop_id":"6983"},"geometry":{"type":"Point","coordinates":[-83.21154610218542,42.3870481341958]}},{"type":"Feature","properties":{"stop_lat":"42.386763","objectid_1":"4128","stop_desc":"Schoolcraft St & Grandmont Rd","label":"6984 - Grandmont Rd / Schoolcraft St","direction":"EASTBOUND","stop_code":"STGREB","stop_lon":"-83.210039","streetname":"Schoolcraft St","stop_name":"SCHOOLCRAFT & GRANDMONT","crossstree":"Grandmont Rd","route":"43","routename":"SCHOOLCRA","stop_id":"6984"},"geometry":{"type":"Point","coordinates":[-83.21004310169906,42.38677113421465]}},{"type":"Feature","properties":{"stop_lat":"42.387031","objectid_1":"4129","stop_desc":"Schoolcraft St & Woodmont Ave","label":"6985 - Woodmont Ave / Schoolcraft St","direction":"WESTBOUND","stop_code":"STWOWB","stop_lon":"-83.20955","streetname":"Schoolcraft St","stop_name":"SCHOOLCRAFT & WOODMONT","crossstree":"Woodmont Ave","route":"43","routename":"SCHOOLCRA","stop_id":"6985"},"geometry":{"type":"Point","coordinates":[-83.20955410157048,42.3870391342847]}},{"type":"Feature","properties":{"stop_lat":"42.386763","objectid_1":"4130","stop_desc":"Schoolcraft St & Asbury Park","label":"6986 - Asbury Park / Schoolcraft St","direction":"EASTBOUND","stop_code":"STASEB","stop_lon":"-83.207729","streetname":"Schoolcraft St","stop_name":"SCHOOLCRAFT & ASBURY PARK","crossstree":"Asbury Park","route":"43","routename":"SCHOOLCRA","stop_id":"6986"},"geometry":{"type":"Point","coordinates":[-83.20773310098681,42.386771134319645]}},{"type":"Feature","properties":{"stop_lat":"42.387031","objectid_1":"4131","stop_desc":"Schoolcraft St & Mettetal St","label":"6987 - Mettetal St / Schoolcraft St","direction":"WESTBOUND","stop_code":"STMEWB","stop_lon":"-83.207166","streetname":"Schoolcraft St","stop_name":"SCHOOLCRAFT & METTETAL","crossstree":"Mettetal St","route":"43","routename":"SCHOOLCRA","stop_id":"6987"},"geometry":{"type":"Point","coordinates":[-83.20717010083537,42.38703913439307]}},{"type":"Feature","properties":{"stop_lat":"42.38687","objectid_1":"4132","stop_desc":"Schoolcraft St & Saint Marys St","label":"6988 - Saint Marys St / Schoolcraft St","direction":"EASTBOUND","stop_code":"STSTEB","stop_lon":"-83.205186","streetname":"Schoolcraft St","stop_name":"SCHOOLCRAFT & ST MARYS","crossstree":"Saint Marys St","route":"43","routename":"SCHOOLCRA","stop_id":"6988"},"geometry":{"type":"Point","coordinates":[-83.20519010021151,42.38687813445433]}},{"type":"Feature","properties":{"stop_lat":"42.387139","objectid_1":"4133","stop_desc":"Schoolcraft St & Mansfield St","label":"6989 - Mansfield St / Schoolcraft St","direction":"WESTBOUND","stop_code":"STMAWB","stop_lon":"-83.204746","streetname":"Schoolcraft St","stop_name":"SCHOOLCRAFT & MANSFIELD","crossstree":"Mansfield St","route":"43","routename":"SCHOOLCRA","stop_id":"6989"},"geometry":{"type":"Point","coordinates":[-83.20475010009804,42.38714713452232]}},{"type":"Feature","properties":{"stop_lat":"42.386924","objectid_1":"4134","stop_desc":"Schoolcraft Ave & Rutherford Ave","label":"6990 - Prevost St / Schoolcraft St","direction":"EASTBOUND","stop_code":"STRUEB","stop_lon":"-83.202607","streetname":"Schoolcraft St","stop_name":"SCHOOLCRAFT & RUTHERFORD","crossstree":"Prevost St","route":"43","routename":"SCHOOLCRA","stop_id":"6990"},"geometry":{"type":"Point","coordinates":[-83.2026110994207,42.3869321345812]}},{"type":"Feature","properties":{"stop_lat":"42.387139","objectid_1":"4135","stop_desc":"Schoolcraft St & Prevost St","label":"6991 - Prevost St / Schoolcraft St","direction":"WESTBOUND","stop_code":"STPRWB","stop_lon":"-83.20268","streetname":"Schoolcraft St","stop_name":"SCHOOLCRAFT & PREVOST","crossstree":"Prevost St","route":"43","routename":"SCHOOLCRA","stop_id":"6991"},"geometry":{"type":"Point","coordinates":[-83.20268409946102,42.38714713461622]}},{"type":"Feature","properties":{"stop_lat":"42.386871","objectid_1":"4136","stop_desc":"Schoolcraft St & Montrose St","label":"6993 - Montrose St / Schoolcraft St","direction":"EASTBOUND","stop_code":"STMOEB","stop_lon":"-83.200383","streetname":"Schoolcraft St","stop_name":"SCHOOLCRAFT & MONTROSE","crossstree":"Montrose St","route":"43","routename":"SCHOOLCRA","stop_id":"6993"},"geometry":{"type":"Point","coordinates":[-83.20038709873054,42.386879134672775]}},{"type":"Feature","properties":{"stop_lat":"42.387067","objectid_1":"4137","stop_desc":"Schoolcraft St & Whitcomb Ave","label":"6998 - Whitcomb Ave / Schoolcraft St","direction":"EASTBOUND","stop_code":"STWHEB","stop_lon":"-83.195506","streetname":"Schoolcraft St","stop_name":"SCHOOLCRAFT & WHITCOMB","crossstree":"Whitcomb Ave","route":"43","routename":"SCHOOLCRA","stop_id":"6998"},"geometry":{"type":"Point","coordinates":[-83.19551009724279,42.38707513492938]}},{"type":"Feature","properties":{"stop_lat":"42.387336","objectid_1":"4138","stop_desc":"Schoolcraft St & Sussex St","label":"6999 - Sussex St / Schoolcraft St","direction":"WESTBOUND","stop_code":"STSUWB","stop_lon":"-83.195249","streetname":"Schoolcraft St","stop_name":"SCHOOLCRAFT & SUSSEX","crossstree":"Sussex St","route":"43","routename":"SCHOOLCRA","stop_id":"6999"},"geometry":{"type":"Point","coordinates":[-83.1952530971858,42.3873441349891]}},{"type":"Feature","properties":{"stop_lat":"42.387094","objectid_1":"4139","stop_desc":"Schoolcraft St & Coyle St","label":"7000 - Coyle St / Schoolcraft St","direction":"EASTBOUND","stop_code":"STCOEB","stop_lon":"-83.193623","streetname":"Schoolcraft St","stop_name":"SCHOOLCRAFT & COYLE","crossstree":"Coyle St","route":"43","routename":"SCHOOLCRA","stop_id":"7000"},"geometry":{"type":"Point","coordinates":[-83.19362709666433,42.38710213501975]}},{"type":"Feature","properties":{"stop_lat":"42.387416","objectid_1":"4140","stop_desc":"Schoolcraft St & Robson Ave","label":"7001 - Robson Ave / Schoolcraft St","direction":"WESTBOUND","stop_code":"STROWB","stop_lon":"-83.19256","streetname":"Schoolcraft St","stop_name":"SCHOOLCRAFT & ROBSON","crossstree":"Robson Ave","route":"43","routename":"SCHOOLCRA","stop_id":"7001"},"geometry":{"type":"Point","coordinates":[-83.19256409636314,42.3874241351255]}},{"type":"Feature","properties":{"stop_lat":"42.387264","objectid_1":"4141","stop_desc":"Schoolcraft St & Terry St","label":"7002 - Terry St / Schoolcraft St","direction":"EASTBOUND","stop_code":"STTEEB","stop_lon":"-83.191448","streetname":"Schoolcraft St","stop_name":"SCHOOLCRAFT & TERRY","crossstree":"Terry St","route":"43","routename":"SCHOOLCRA","stop_id":"7002"},"geometry":{"type":"Point","coordinates":[-83.19145209600767,42.38727213514894]}},{"type":"Feature","properties":{"stop_lat":"42.387443","objectid_1":"4142","stop_desc":"Schoolcraft St & Lauder Ave","label":"7003 - Lauder Ave / Schoolcraft St","direction":"WESTBOUND","stop_code":"STLAWB","stop_lon":"-83.190616","streetname":"Schoolcraft St","stop_name":"SCHOOLCRAFT & LAUDER","crossstree":"Lauder Ave","route":"43","routename":"SCHOOLCRA","stop_id":"7003"},"geometry":{"type":"Point","coordinates":[-83.1906200957659,42.38745113521869]}},{"type":"Feature","properties":{"stop_lat":"42.387532","objectid_1":"4143","stop_desc":"Schoolcraft St & Hubbell St","label":"7005 - Hubbell St / Schoolcraft St","direction":"WESTBOUND","stop_code":"STHUWB","stop_lon":"-83.188807","streetname":"Schoolcraft St","stop_name":"SCHOOLCRAFT & HUBBELL","crossstree":"Hubbell St","route":"43","routename":"SCHOOLCRA","stop_id":"7005"},"geometry":{"type":"Point","coordinates":[-83.18881109521531,42.38754013531674]}},{"type":"Feature","properties":{"stop_lat":"42.387264","objectid_1":"4144","stop_desc":"Schoolcraft St & Hubbell St","label":"7006 - Hubbell St / Schoolcraft St","direction":"EASTBOUND","stop_code":"STHUEB","stop_lon":"-83.188062","streetname":"Schoolcraft St","stop_name":"SCHOOLCRAFT & HUBBELL","crossstree":"Hubbell St","route":"43","routename":"SCHOOLCRA","stop_id":"7006"},"geometry":{"type":"Point","coordinates":[-83.18806609496343,42.387272135302744]}},{"type":"Feature","properties":{"stop_lat":"42.387192","objectid_1":"4145","stop_desc":"Grand River Ave & Schoolcraft St","label":"7007 - Schoolcraft St / Grand River Ave","direction":"EASTBOUND","stop_code":"GRSCEB","stop_lon":"-83.185165","streetname":"Grand River Ave","stop_name":"GRAND RIVER & SCHOOLCRAFT","crossstree":"Schoolcraft St","route":"21","routename":"GRAND RIV","stop_id":"7007"},"geometry":{"type":"Point","coordinates":[-83.18516909406408,42.38720013542143]}},{"type":"Feature","properties":{"stop_lat":"42.387773","objectid_1":"4146","stop_desc":"Schoolcraft St & Freeland St","label":"7012 - Freeland St / Schoolcraft St","direction":"WESTBOUND","stop_code":"STFRWB","stop_lon":"-83.184749","streetname":"Schoolcraft St","stop_name":"SCHOOLCRAFT & FREELAND","crossstree":"Freeland St","route":"43","routename":"SCHOOLCRA","stop_id":"7012"},"geometry":{"type":"Point","coordinates":[-83.18475309398377,42.38778113554405]}},{"type":"Feature","properties":{"stop_lat":"42.388131","objectid_1":"4147","stop_desc":"Schoolcraft St & Stansbury St","label":"7013 - Stansbury St / Schoolcraft St","direction":"WESTBOUND","stop_code":"STSTWB","stop_lon":"-83.182268","streetname":"Schoolcraft St","stop_name":"SCHOOLCRAFT & STANSBURY","crossstree":"Stansbury St","route":"43","routename":"SCHOOLCRA","stop_id":"7013"},"geometry":{"type":"Point","coordinates":[-83.1822720932482,42.38813913572066]}},{"type":"Feature","properties":{"stop_lat":"42.387871","objectid_1":"4148","stop_desc":"Schoolcraft St & Stansbury St","label":"7014 - Stansbury St / Schoolcraft St","direction":"EASTBOUND","stop_code":"STSTEB","stop_lon":"-83.18195","streetname":"Schoolcraft St","stop_name":"SCHOOLCRAFT & STANSBURY","crossstree":"Stansbury St","route":"43","routename":"SCHOOLCRA","stop_id":"7014"},"geometry":{"type":"Point","coordinates":[-83.18195409312865,42.38787913568872]}},{"type":"Feature","properties":{"stop_lat":"42.387987","objectid_1":"4149","stop_desc":"Schoolcraft Ave & Hartwell St","label":"7020 - Hartwell St / Schoolcraft Ave","direction":"EASTBOUND","stop_code":"STHAEB","stop_lon":"-83.176731","streetname":"Schoolcraft Ave","stop_name":"SCHOOLCRAFT & HARTWELL","crossstree":"Hartwell St","route":"43","routename":"SCHOOLCRA","stop_id":"7020"},"geometry":{"type":"Point","coordinates":[-83.17673509152861,42.387995135946426]}},{"type":"Feature","properties":{"stop_lat":"42.388318","objectid_1":"4150","stop_desc":"Schoolcraft Ave & Littlefield St","label":"7021 - Littlefield St / Schoolcraft Ave","direction":"WESTBOUND","stop_code":"STLIWB","stop_lon":"-83.175447","streetname":"Schoolcraft Ave","stop_name":"SCHOOLCRAFT & LITTLEFIELD","crossstree":"Littlefield St","route":"43","routename":"SCHOOLCRA","stop_id":"7021"},"geometry":{"type":"Point","coordinates":[-83.17545109115994,42.38832613606377]}},{"type":"Feature","properties":{"stop_lat":"42.388067","objectid_1":"4151","stop_desc":"Schoolcraft St & Cheyenne St","label":"7022 - Cheyenne St / Schoolcraft St","direction":"EASTBOUND","stop_code":"STCHEB","stop_lon":"-83.173809","streetname":"Schoolcraft St","stop_name":"SCHOOLCRAFT & CHEYENNE","crossstree":"Cheyenne St","route":"43","routename":"SCHOOLCRA","stop_id":"7022"},"geometry":{"type":"Point","coordinates":[-83.173813090634,42.38807513609338]}},{"type":"Feature","properties":{"stop_lat":"42.388335","objectid_1":"4152","stop_desc":"Schoolcraft St & Ward St","label":"7023 - Ward St / Schoolcraft St","direction":"WESTBOUND","stop_code":"STWAWB","stop_lon":"-83.173259","streetname":"Schoolcraft St","stop_name":"SCHOOLCRAFT & WARD","crossstree":"Ward St","route":"43","routename":"SCHOOLCRA","stop_id":"7023"},"geometry":{"type":"Point","coordinates":[-83.17326309048651,42.388343136166185]}},{"type":"Feature","properties":{"stop_lat":"42.388004","objectid_1":"4153","stop_desc":"Schoolcraft St & Sorrento St","label":"7024 - Sorrento St / Schoolcraft St","direction":"EASTBOUND","stop_code":"STSOEB","stop_lon":"-83.171805","streetname":"Schoolcraft St","stop_name":"SCHOOLCRAFT & SORRENTO","crossstree":"Sorrento St","route":"43","routename":"SCHOOLCRA","stop_id":"7024"},"geometry":{"type":"Point","coordinates":[-83.17180909001067,42.38801213617316]}},{"type":"Feature","properties":{"stop_lat":"42.388406","objectid_1":"4154","stop_desc":"Schoolcraft St & Steel St","label":"7025 - Steel St / Schoolcraft St","direction":"WESTBOUND","stop_code":"STSTWB","stop_lon":"-83.171071","streetname":"Schoolcraft St","stop_name":"SCHOOLCRAFT & STEEL","crossstree":"Steel St","route":"43","routename":"SCHOOLCRA","stop_id":"7025"},"geometry":{"type":"Point","coordinates":[-83.17107508981755,42.3884141362782]}},{"type":"Feature","properties":{"stop_lat":"42.388433","objectid_1":"4155","stop_desc":"Schoolcraft St & Meyers Rd","label":"7027 - Meyers Rd / Schoolcraft St","direction":"WESTBOUND","stop_code":"STMEWB","stop_lon":"-83.169042","streetname":"Schoolcraft St","stop_name":"SCHOOLCRAFT & MEYERS","crossstree":"Meyers Rd","route":"43","routename":"SCHOOLCRA","stop_id":"7027"},"geometry":{"type":"Point","coordinates":[-83.16904608919396,42.38844113637519]}},{"type":"Feature","properties":{"stop_lat":"42.388191","objectid_1":"4156","stop_desc":"Schoolcraft Ave & Meyers Rd","label":"7028 - Meyers Rd / Schoolcraft Ave","direction":"EASTBOUND","stop_code":"STMEEB","stop_lon":"-83.168639","streetname":"Schoolcraft Ave","stop_name":"SCHOOLCRAFT & MEYERS","crossstree":"Meyers Rd","route":"43","routename":"SCHOOLCRA","stop_id":"7028"},"geometry":{"type":"Point","coordinates":[-83.16864308904965,42.388199136350266]}},{"type":"Feature","properties":{"stop_lat":"42.388441","objectid_1":"4157","stop_desc":"Schoolcraft St & Monte Vista St","label":"7029 - Monte Vista St / Schoolcraft St","direction":"WESTBOUND","stop_code":"STMOWB","stop_lon":"-83.166915","streetname":"Schoolcraft St","stop_name":"SCHOOLCRAFT & MONTE VISTA","crossstree":"Monte Vista St","route":"43","routename":"SCHOOLCRA","stop_id":"7029"},"geometry":{"type":"Point","coordinates":[-83.16691908853852,42.38844913647317]}},{"type":"Feature","properties":{"stop_lat":"42.388271","objectid_1":"4158","stop_desc":"Schoolcraft St & Pinehurst St","label":"7030 - Pinehurst St / Schoolcraft St","direction":"EASTBOUND","stop_code":"STPIEB","stop_lon":"-83.16529","streetname":"Schoolcraft St","stop_name":"SCHOOLCRAFT & PINEHURST","crossstree":"Pinehurst St","route":"43","routename":"SCHOOLCRA","stop_id":"7030"},"geometry":{"type":"Point","coordinates":[-83.16529408802329,42.38827913651656]}},{"type":"Feature","properties":{"stop_lat":"42.388539","objectid_1":"4159","stop_desc":"Schoolcraft St & Mendota St","label":"7031 - Mendota St / Schoolcraft St","direction":"WESTBOUND","stop_code":"STMEWB","stop_lon":"-83.164703","streetname":"Schoolcraft St","stop_name":"SCHOOLCRAFT & MENDOTA","crossstree":"Mendota St","route":"43","routename":"SCHOOLCRA","stop_id":"7031"},"geometry":{"type":"Point","coordinates":[-83.16470708786436,42.38854713659107]}},{"type":"Feature","properties":{"stop_lat":"42.38827","objectid_1":"4160","stop_desc":"Schoolcraft St & Birwood St","label":"7032 - Birwood St / Schoolcraft St","direction":"EASTBOUND","stop_code":"STBIEB","stop_lon":"-83.163041","streetname":"Schoolcraft St","stop_name":"SCHOOLCRAFT & BIRWOOD","crossstree":"Birwood St","route":"43","routename":"SCHOOLCRA","stop_id":"7032"},"geometry":{"type":"Point","coordinates":[-83.16304508732948,42.38827813661847]}},{"type":"Feature","properties":{"stop_lat":"42.388538","objectid_1":"4161","stop_desc":"Schoolcraft St & Ilene St","label":"7033 - Ilene St / Schoolcraft St","direction":"WESTBOUND","stop_code":"STILWB","stop_lon":"-83.161806","streetname":"Schoolcraft St","stop_name":"SCHOOLCRAFT & ILENE","crossstree":"Ilene St","route":"43","routename":"SCHOOLCRA","stop_id":"7033"},"geometry":{"type":"Point","coordinates":[-83.16181008697065,42.38854613672239]}},{"type":"Feature","properties":{"stop_lat":"42.388636","objectid_1":"4162","stop_desc":"Schoolcraft St & Wyoming St","label":"7035 - Wyoming St / Schoolcraft St","direction":"WESTBOUND","stop_code":"STWYWB","stop_lon":"-83.159484","streetname":"Schoolcraft St","stop_name":"SCHOOLCRAFT & WYOMING","crossstree":"Wyoming St","route":"43","routename":"SCHOOLCRA","stop_id":"7035"},"geometry":{"type":"Point","coordinates":[-83.15948808626253,42.38864413684532]}},{"type":"Feature","properties":{"stop_lat":"42.388376","objectid_1":"4163","stop_desc":"Schoolcraft Ave & Wyoming St","label":"7036 - Wyoming St / Schoolcraft Ave","direction":"EASTBOUND","stop_code":"STWYEB","stop_lon":"-83.159141","streetname":"Schoolcraft Ave","stop_name":"SCHOOLCRAFT & WYOMING","crossstree":"Wyoming St","route":"43","routename":"SCHOOLCRA","stop_id":"7036"},"geometry":{"type":"Point","coordinates":[-83.15914508613525,42.388384136814445]}},{"type":"Feature","properties":{"stop_lat":"42.388931","objectid_1":"4164","stop_desc":"Wyoming St & Schoolcraft St","label":"7037 - Schoolcraft St / Wyoming St","direction":"NORTHBOUN","stop_code":"WYSCNB","stop_lon":"-83.159129","streetname":"Wyoming St","stop_name":"WYOMING & SCHOOLCRAFT","crossstree":"Schoolcraft St","route":"54","routename":"WYOMING","stop_id":"7037"},"geometry":{"type":"Point","coordinates":[-83.15913308617738,42.3889391369141]}},{"type":"Feature","properties":{"stop_lat":"42.388341","objectid_1":"4165","stop_desc":"Wyoming St & Schoolcraft St","label":"7038 - Schoolcraft St / Wyoming St","direction":"SOUTHBOUN","stop_code":"WYSCSB","stop_lon":"-83.159435","streetname":"Wyoming St","stop_name":"WYOMING & SCHOOLCRAFT","crossstree":"Schoolcraft St","route":"54","routename":"WYOMING","stop_id":"7038"},"geometry":{"type":"Point","coordinates":[-83.15943908622305,42.388349136794815]}},{"type":"Feature","properties":{"stop_lat":"42.388635","objectid_1":"4166","stop_desc":"Schoolcraft St & Indiana St","label":"7039 - Indiana St / Schoolcraft St","direction":"WESTBOUND","stop_code":"STINWB","stop_lon":"-83.157186","streetname":"Schoolcraft St","stop_name":"SCHOOLCRAFT & INDIANA","crossstree":"Indiana St","route":"43","routename":"SCHOOLCRA","stop_id":"7039"},"geometry":{"type":"Point","coordinates":[-83.1571900855536,42.38864313694943]}},{"type":"Feature","properties":{"stop_lat":"42.388367","objectid_1":"4167","stop_desc":"Schoolcraft St & Wisconsin Ave","label":"7040 - Wisconsin Ave / Schoolcraft St","direction":"EASTBOUND","stop_code":"STINEB","stop_lon":"-83.156807","streetname":"Schoolcraft St","stop_name":"SCHOOLCRAFT & INDIANA","crossstree":"Wisconsin Ave","route":"43","routename":"SCHOOLCRA","stop_id":"7040"},"geometry":{"type":"Point","coordinates":[-83.15681108541453,42.38837513691878]}},{"type":"Feature","properties":{"stop_lat":"42.388635","objectid_1":"4168","stop_desc":"Schoolcraft St & Ohio Ave","label":"7041 - Ohio Ave / Schoolcraft St","direction":"WESTBOUND","stop_code":"STOHWB","stop_lon":"-83.155157","streetname":"Schoolcraft St","stop_name":"SCHOOLCRAFT & OHIO","crossstree":"Ohio Ave","route":"43","routename":"SCHOOLCRA","stop_id":"7041"},"geometry":{"type":"Point","coordinates":[-83.15516108492771,42.3886431370415]}},{"type":"Feature","properties":{"stop_lat":"42.388366","objectid_1":"4169","stop_desc":"Schoolcraft St & Ohio Ave","label":"7042 - Ohio Ave / Schoolcraft St","direction":"EASTBOUND","stop_code":"STOHEB","stop_lon":"-83.154827","streetname":"Schoolcraft St","stop_name":"SCHOOLCRAFT & OHIO","crossstree":"Ohio Ave","route":"43","routename":"SCHOOLCRA","stop_id":"7042"},"geometry":{"type":"Point","coordinates":[-83.15483108480369,42.388374137008476]}},{"type":"Feature","properties":{"stop_lat":"42.386335","objectid_1":"4170","stop_desc":"W Davison & Northlawn St","label":"7043 - Northlawn St / W Davison","direction":"WESTBOUND","stop_code":"NODVWB","stop_lon":"-83.152933","streetname":"W Davison","stop_name":"NORTHLAWN & DAVISON","crossstree":"Northlawn St","route":"43","routename":"SCHOOLCRA","stop_id":"7043"},"geometry":{"type":"Point","coordinates":[-83.15293708405173,42.386343136731774]}},{"type":"Feature","properties":{"stop_lat":"42.388571","objectid_1":"4171","stop_desc":"Schoolcraft St & Northlawn St","label":"7044 - Northlawn St / Schoolcraft St","direction":"EASTBOUND","stop_code":"STNOEB","stop_lon":"-83.152871","streetname":"Schoolcraft St","stop_name":"SCHOOLCRAFT & NORTHLAWN","crossstree":"Northlawn St","route":"43","routename":"SCHOOLCRA","stop_id":"7044"},"geometry":{"type":"Point","coordinates":[-83.15287508421723,42.38857913713382]}},{"type":"Feature","properties":{"stop_lat":"42.386299","objectid_1":"4172","stop_desc":"","label":"7046 - DAVISON / CLOVERLAWN","direction":"EASTBOUND","stop_code":"CQDASB","stop_lon":"-83.151904","streetname":"CLOVERLAWN","stop_name":"CLOVERLAWN & DAVISON","crossstree":"DAVISON","route":"43","routename":"SCHOOLCRA","stop_id":"7046"},"geometry":{"type":"Point","coordinates":[-83.15190808373134,42.38630713677205]}},{"type":"Feature","properties":{"stop_lat":"42.388616","objectid_1":"4173","stop_desc":"Cloverlawn St & Schoolcraft St","label":"7047 - Schoolcraft St / Cloverlawn St","direction":"EASTBOUND","stop_code":"CQSCSB","stop_lon":"-83.152162","streetname":"Cloverlawn St","stop_name":"CLOVERLAWN & SCHOOLCRAFT","crossstree":"Schoolcraft St","route":"43","routename":"SCHOOLCRA","stop_id":"7047"},"geometry":{"type":"Point","coordinates":[-83.15216608400225,42.38862413717403]}},{"type":"Feature","properties":{"stop_lat":"42.386521","objectid_1":"4174","stop_desc":"W Davison & Turner St","label":"7048 - Turner St / W Davison","direction":"WESTBOUND","stop_code":"DVTUWB","stop_lon":"-83.147751","streetname":"W Davison","stop_name":"DAVISON & TURNER","crossstree":"Turner St","route":"43","routename":"SCHOOLCRA","stop_id":"7048"},"geometry":{"type":"Point","coordinates":[-83.14775508246858,42.386529137000146]}},{"type":"Feature","properties":{"stop_lat":"42.388604","objectid_1":"4175","stop_desc":"Ewald Cir & Schoolcraft St","label":"7049 - Schoolcraft St / Ewald Cir","direction":"WESTBOUND","stop_code":"EWSCWB","stop_lon":"-83.145659","streetname":"Ewald Cir","stop_name":"EWALD CIRCLE & SCHOOLCRAFT","crossstree":"Schoolcraft St","route":"43","routename":"SCHOOLCRA","stop_id":"7049"},"geometry":{"type":"Point","coordinates":[-83.14566308199518,42.388612137466964]}},{"type":"Feature","properties":{"stop_lat":"42.388685","objectid_1":"4176","stop_desc":"Ewald Cir & Schoolcraft St","label":"7050 - Prairie St / Ewald Cir","direction":"EASTBOUND","stop_code":"EWSCEB","stop_lon":"-83.14539","streetname":"Ewald Cir","stop_name":"EWALD CIRCLE & SCHOOLCRAFT","crossstree":"Prairie St","route":"43","routename":"SCHOOLCRA","stop_id":"7050"},"geometry":{"type":"Point","coordinates":[-83.14539408191888,42.38869313749361]}},{"type":"Feature","properties":{"stop_lat":"42.389919","objectid_1":"4177","stop_desc":"Ewald Cir & Prairie St","label":"7051 - Prairie St / Ewald Cir","direction":"WESTBOUND","stop_code":"EWPRWB","stop_lon":"-83.144656","streetname":"Ewald Cir","stop_name":"EWALD CIRCLE & PRAIRIE","crossstree":"Prairie St","route":"43","routename":"SCHOOLCRA","stop_id":"7051"},"geometry":{"type":"Point","coordinates":[-83.14466008179431,42.389927137747264]}},{"type":"Feature","properties":{"stop_lat":"42.389899","objectid_1":"4178","stop_desc":"","label":"7052 - PRAIRIE / EWALD CIRCLE","direction":"EASTBOUND","stop_code":"EWPREB","stop_lon":"-83.144402","streetname":"EWALD CIRCLE","stop_name":"EWALD CIRCLE & PRAIRIE","crossstree":"PRAIRIE","route":"43","routename":"SCHOOLCRA","stop_id":"7052"},"geometry":{"type":"Point","coordinates":[-83.14440608171431,42.38990713775523]}},{"type":"Feature","properties":{"stop_lat":"42.390749","objectid_1":"4179","stop_desc":"Ewald Cir & Santa Rosa Dr","label":"7053 - Santa Rosa Dr / Ewald Cir","direction":"WESTBOUND","stop_code":"EWSAWB","stop_lon":"-83.142357","streetname":"Ewald Cir","stop_name":"EWALD CIRCLE & SANTA ROSA DRIVE","crossstree":"Santa Rosa Dr","route":"43","routename":"SCHOOLCRA","stop_id":"7053"},"geometry":{"type":"Point","coordinates":[-83.1423610811536,42.3907571379997]}},{"type":"Feature","properties":{"stop_lat":"42.390633","objectid_1":"4180","stop_desc":"Ewald Cir & Santa Rosa Dr","label":"7054 - Santa Rosa Dr / Ewald Cir","direction":"EASTBOUND","stop_code":"EWSAEB","stop_lon":"-83.141905","streetname":"Ewald Cir","stop_name":"EWALD CIRCLE & SANTA ROSA DRIVE","crossstree":"Santa Rosa Dr","route":"43","routename":"SCHOOLCRA","stop_id":"7054"},"geometry":{"type":"Point","coordinates":[-83.14190908100457,42.39064113799952]}},{"type":"Feature","properties":{"stop_lat":"42.392777","objectid_1":"4181","stop_desc":"Ewald Cir & Holmur St","label":"7060 - Holmur St / Ewald Cir","direction":"WESTBOUND","stop_code":"EWHOWB","stop_lon":"-83.136244","streetname":"Ewald Cir","stop_name":"EWALD CIRCLE & HOLMUR","crossstree":"Holmur St","route":"43","routename":"SCHOOLCRA","stop_id":"7060"},"geometry":{"type":"Point","coordinates":[-83.1362480794351,42.39278513863917]}},{"type":"Feature","properties":{"stop_lat":"42.392687","objectid_1":"4182","stop_desc":"Ewald Cir & Holmur St","label":"7061 - Holmur St / Ewald Cir","direction":"EASTBOUND","stop_code":"EWHOEB","stop_lon":"-83.135742","streetname":"Ewald Cir","stop_name":"EWALD CIRCLE & HOLMUR","crossstree":"Holmur St","route":"43","routename":"SCHOOLCRA","stop_id":"7061"},"geometry":{"type":"Point","coordinates":[-83.13574607927276,42.39269513864587]}},{"type":"Feature","properties":{"stop_lat":"42.393813","objectid_1":"4183","stop_desc":"Ewald Cir & Dexter Ave","label":"7062 - Dexter Ave / Ewald Cir","direction":"WESTBOUND","stop_code":"EWDEWB","stop_lon":"-83.133908","streetname":"Ewald Cir","stop_name":"EWALD CIRCLE & DEXTER","crossstree":"Dexter Ave","route":"43","routename":"SCHOOLCRA","stop_id":"7062"},"geometry":{"type":"Point","coordinates":[-83.13391207879991,42.39382113893009]}},{"type":"Feature","properties":{"stop_lat":"42.393822","objectid_1":"4184","stop_desc":"Ewald Cir & Dexter Ave","label":"7063 - Dexter Ave / Ewald Cir","direction":"EASTBOUND","stop_code":"EWDEEB","stop_lon":"-83.13315","streetname":"Ewald Cir","stop_name":"EWALD CIRCLE & DEXTER","crossstree":"Dexter Ave","route":"43","routename":"SCHOOLCRA","stop_id":"7063"},"geometry":{"type":"Point","coordinates":[-83.13315407856676,42.39383013896606]}},{"type":"Feature","properties":{"stop_lat":"42.393956","objectid_1":"4185","stop_desc":"Dexter Ave & Ewald Cir","label":"7064 - Ewald Cir / Dexter Ave","direction":"NORTHBOUN","stop_code":"DXEWNB","stop_lon":"-83.133504","streetname":"Dexter Ave","stop_name":"DEXTER & EWALD CIRCLE","crossstree":"Ewald Cir","route":"16","routename":"DEXTER","stop_id":"7064"},"geometry":{"type":"Point","coordinates":[-83.13350807868706,42.39396413897393]}},{"type":"Feature","properties":{"stop_lat":"42.393867","objectid_1":"4186","stop_desc":"Dexter Ave & Ewald Cir","label":"7065 - Ewald Cir / Dexter Ave","direction":"SOUTHBOUN","stop_code":"DXEWSB","stop_lon":"-83.133834","streetname":"Dexter Ave","stop_name":"DEXTER & EWALD CIRCLE","crossstree":"Ewald Cir","route":"16","routename":"DEXTER","stop_id":"7065"},"geometry":{"type":"Point","coordinates":[-83.13383807878154,42.393875138943066]}},{"type":"Feature","properties":{"stop_lat":"42.395073","objectid_1":"4187","stop_desc":"Ewald Cir & Wildemere St","label":"7066 - Wildemere St / Ewald Cir","direction":"WESTBOUND","stop_code":"EWWIWB","stop_lon":"-83.130496","streetname":"Ewald Cir","stop_name":"EWALD CIRCLE & WILDEMERE","crossstree":"Wildemere St","route":"43","routename":"SCHOOLCRA","stop_id":"7066"},"geometry":{"type":"Point","coordinates":[-83.13050007785117,42.39508113930977]}},{"type":"Feature","properties":{"stop_lat":"42.395037","objectid_1":"4188","stop_desc":"Ewald Cir & Wildemere St","label":"7067 - Wildemere St / Ewald Cir","direction":"EASTBOUND","stop_code":"EWWIEB","stop_lon":"-83.130044","streetname":"Ewald Cir","stop_name":"EWALD CIRCLE & WILDMERE","crossstree":"Wildemere St","route":"43","routename":"SCHOOLCRA","stop_id":"7067"},"geometry":{"type":"Point","coordinates":[-83.13004807770874,42.39504513932386]}},{"type":"Feature","properties":{"stop_lat":"42.396458","objectid_1":"4189","stop_desc":"Ewald Cir & Kendall St","label":"7068 - Kendall St / Ewald Cir","direction":"WESTBOUND","stop_code":"EWKEWB","stop_lon":"-83.129064","streetname":"Ewald Cir","stop_name":"EWALD CIRCLE & KENDALL","crossstree":"Kendall St","route":"43","routename":"SCHOOLCRA","stop_id":"7068"},"geometry":{"type":"Point","coordinates":[-83.12906807752371,42.39646613962203]}},{"type":"Feature","properties":{"stop_lat":"42.396324","objectid_1":"4190","stop_desc":"Ewald Cir & Kendall St","label":"7069 - Kendall St / Ewald Cir","direction":"EASTBOUND","stop_code":"EWKEEB","stop_lon":"-83.128759","streetname":"Ewald Cir","stop_name":"EWALD CIRCLE & KENDALL","crossstree":"Kendall St","route":"43","routename":"SCHOOLCRA","stop_id":"7069"},"geometry":{"type":"Point","coordinates":[-83.12876307741851,42.396332139611914]}},{"type":"Feature","properties":{"stop_lat":"42.398156","objectid_1":"4191","stop_desc":"Oakman Blvd & Linwood St","label":"7070 - Linwood St / Oakman Blvd","direction":"WESTBOUND","stop_code":"OMLIWB","stop_lon":"-83.125469","streetname":"Oakman Blvd","stop_name":"OAKMAN & LINWOOD","crossstree":"Linwood St","route":"43","routename":"SCHOOLCRA","stop_id":"7070"},"geometry":{"type":"Point","coordinates":[-83.12547307655463,42.3981641400882]}},{"type":"Feature","properties":{"stop_lat":"42.398138","objectid_1":"4192","stop_desc":"Oakman Blvd & Linwood St","label":"7071 - Linwood St / Oakman Blvd","direction":"EASTBOUND","stop_code":"OMLIEB","stop_lon":"-83.12498","streetname":"Oakman Blvd","stop_name":"OAKMAN & LINWOOD","crossstree":"Linwood St","route":"43","routename":"SCHOOLCRA","stop_id":"7071"},"geometry":{"type":"Point","coordinates":[-83.12498407640224,42.398146140107215]}},{"type":"Feature","properties":{"stop_lat":"42.398406","objectid_1":"4193","stop_desc":"Linwood St & Oakman Blvd","label":"7072 - Oakman Blvd / Linwood St","direction":"NORTHBOUN","stop_code":"LNOANB","stop_lon":"-83.125187","streetname":"Linwood St","stop_name":"LINWOOD & OAKMAN","crossstree":"Oakman Blvd","route":"29","routename":"LINWOOD","stop_id":"7072"},"geometry":{"type":"Point","coordinates":[-83.1251910764883,42.398414140145675]}},{"type":"Feature","properties":{"stop_lat":"42.399263","objectid_1":"4194","stop_desc":"Oakman Blvd & La Salle Blvd","label":"7073 - La Salle Blvd / Oakman Blvd","direction":"WESTBOUND","stop_code":"OMLAWB","stop_lon":"-83.122741","streetname":"Oakman Blvd","stop_name":"OAKMAN & LASALLE","crossstree":"La Salle Blvd","route":"43","routename":"SCHOOLCRA","stop_id":"7073"},"geometry":{"type":"Point","coordinates":[-83.12274507580427,42.39927114040964]}},{"type":"Feature","properties":{"stop_lat":"42.399147","objectid_1":"4195","stop_desc":"Oakman Blvd & La Salle Blvd","label":"7074 - La Salle Blvd / Oakman Blvd","direction":"EASTBOUND","stop_code":"OMLAEB","stop_lon":"-83.122277","streetname":"Oakman Blvd","stop_name":"OAKMAN & LASALLE","crossstree":"La Salle Blvd","route":"43","routename":"SCHOOLCRA","stop_id":"7074"},"geometry":{"type":"Point","coordinates":[-83.1222810756515,42.39915514040991]}},{"type":"Feature","properties":{"stop_lat":"42.400245","objectid_1":"4196","stop_desc":"Oakman Blvd & 14th St","label":"7076 - Oakman Blvd / 14th St","direction":"EASTBOUND","stop_code":"OM14EB","stop_lon":"-83.119207","streetname":"14th St","stop_name":"OAKMAN & 14TH","crossstree":"Oakman Blvd","route":"43","routename":"SCHOOLCRA","stop_id":"7076"},"geometry":{"type":"Point","coordinates":[-83.11921107479485,42.40025314074518]}},{"type":"Feature","properties":{"stop_lat":"42.400362","objectid_1":"4197","stop_desc":"Oakman Blvd & 14th St","label":"7077 - 14th St / Oakman Blvd","direction":"WESTBOUND","stop_code":"OM14WB","stop_lon":"-83.119733","streetname":"Oakman Blvd","stop_name":"OAKMAN & 14TH","crossstree":"14th St","route":"43","routename":"SCHOOLCRA","stop_id":"7077"},"geometry":{"type":"Point","coordinates":[-83.11973707496679,42.40037014074221]}},{"type":"Feature","properties":{"stop_lat":"42.402273","objectid_1":"4198","stop_desc":"Oakman Blvd & Woodrow Wilson St","label":"7078 - Woodrow Wilson St / Oakman Blvd","direction":"WESTBOUND","stop_code":"OMWOWB","stop_lon":"-83.114596","streetname":"Oakman Blvd","stop_name":"OAKMAN & WOODROW WILSON","crossstree":"Woodrow Wilson St","route":"43","routename":"SCHOOLCRA","stop_id":"7078"},"geometry":{"type":"Point","coordinates":[-83.11460007353936,42.40228114131631]}},{"type":"Feature","properties":{"stop_lat":"42.402156","objectid_1":"4199","stop_desc":"Oakman Blvd & Woodrow Wilson St","label":"7079 - Woodrow Wilson St / Oakman Blvd","direction":"EASTBOUND","stop_code":"OMWOEB","stop_lon":"-83.114131","streetname":"Oakman Blvd","stop_name":"OAKMAN & WOODROW WILSON","crossstree":"Woodrow Wilson St","route":"43","routename":"SCHOOLCRA","stop_id":"7079"},"geometry":{"type":"Point","coordinates":[-83.11413507338624,42.40216414131656]}},{"type":"Feature","properties":{"stop_lat":"42.4039","objectid_1":"4200","stop_desc":"","label":"7080 - SANDERS PL / OAKMAN","direction":"WESTBOUND","stop_code":"OMSAWB","stop_lon":"-83.109903","streetname":"OAKMAN","stop_name":"OAKMAN & SANDERS PL","crossstree":"SANDERS PL","route":"43","routename":"SCHOOLCRA","stop_id":"7080"},"geometry":{"type":"Point","coordinates":[-83.10990707222543,42.403908141819656]}},{"type":"Feature","properties":{"stop_lat":"42.404138","objectid_1":"4201","stop_desc":"Oakman Blvd & Woodrow Wilson St","label":"7081 - Woodrow Wilson St / Oakman Blvd","direction":"EASTBOUND","stop_code":"OMSAEB","stop_lon":"-83.108823","streetname":"Oakman Blvd","stop_name":"OAKMAN & SANDERS PL","crossstree":"Woodrow Wilson St","route":"43","routename":"SCHOOLCRA","stop_id":"7081"},"geometry":{"type":"Point","coordinates":[-83.10882707191176,42.40414614191106]}},{"type":"Feature","properties":{"stop_lat":"42.406383","objectid_1":"4202","stop_desc":"Hamilton Ave & Conrail Railroad","label":"7086 - Conrail Railroad / Hamilton Ave","direction":"SOUTHBOUN","stop_code":"HMRRSB","stop_lon":"-83.109028","streetname":"Hamilton Ave","stop_name":"HAMILTON & 15045","crossstree":"Conrail Railroad","route":"23","routename":"HAMILTON","stop_id":"7086"},"geometry":{"type":"Point","coordinates":[-83.10903207216037,42.40639114230257]}},{"type":"Feature","properties":{"stop_lat":"42.386235","objectid_1":"4203","stop_desc":"Schoolcraft & Burt Rd","label":"7089 - Burt Rd / Schoolcraft","direction":"WESTBOUND","stop_code":"STBUWB","stop_lon":"-83.24711","streetname":"Schoolcraft","stop_name":"SCHOOLCRAFT & BURT ROAD","crossstree":"Burt Rd","route":"43","routename":"SCHOOLCRA","stop_id":"7089"},"geometry":{"type":"Point","coordinates":[-83.24711411308454,42.38624313243447]}},{"type":"Feature","properties":{"stop_lat":"42.385019","objectid_1":"4204","stop_desc":"Schoolcraft Ave & Schoolcraft Rd","label":"7093 - Kentfield St / Schoolcraft","direction":"EASTBOUND","stop_code":"STBUEB","stop_lon":"-83.246156","streetname":"Schoolcraft","stop_name":"SCHOOLCRAFT & BURT ROAD","crossstree":"Kentfield St","route":"43","routename":"SCHOOLCRA","stop_id":"7093"},"geometry":{"type":"Point","coordinates":[-83.24616011268978,42.38502713226094]}},{"type":"Feature","properties":{"stop_lat":"42.384016","objectid_1":"4205","stop_desc":"Ewald Cir & Buena Vista St","label":"7099 - Buena Vista St / Ewald Cir","direction":"EASTB0UND","stop_code":"EWBUNB","stop_lon":"-83.145223","streetname":"Ewald Cir","stop_name":"EWALD CIRCLE & BUENA VISTA","crossstree":"Buena Vista St","route":"15","routename":"CHICAGO-D","stop_id":"7099"},"geometry":{"type":"Point","coordinates":[-83.14522708148196,42.38402413666748]}},{"type":"Feature","properties":{"stop_lat":"42.383792","objectid_1":"4206","stop_desc":"Ewald Cir & Buena Vista St","label":"7100 - Buena Vista St / Ewald Cir","direction":"WESTBOUND","stop_code":"EWBUSB","stop_lon":"-83.145577","streetname":"Ewald Cir","stop_name":"EWALD CIRCLE & BUENA VISTA","crossstree":"Buena Vista St","route":"15","routename":"CHICAGO-D","stop_id":"7100"},"geometry":{"type":"Point","coordinates":[-83.14558108157266,42.383800136611406]}},{"type":"Feature","properties":{"stop_lat":"42.386368","objectid_1":"4207","stop_desc":"Ewald Cir & W Davison Ave","label":"7101 - W Davison Ave / Ewald Cir","direction":"WESTBOUND","stop_code":"EWDAWB","stop_lon":"-83.14549","streetname":"Ewald Cir","stop_name":"EWALD CIRCLE & DAVISON","crossstree":"W Davison Ave","route":"43","routename":"SCHOOLCRA","stop_id":"7101"},"geometry":{"type":"Point","coordinates":[-83.14549408175841,42.386376137075366]}},{"type":"Feature","properties":{"stop_lat":"42.386091","objectid_1":"4208","stop_desc":"Ewald Cir & W Davison Ave","label":"7102 - W Davison Ave / Ewald Cir","direction":"WESTBOUND","stop_code":"EWDASB","stop_lon":"-83.145478","streetname":"Ewald Cir","stop_name":"EWALD CIRCLE & DAVISON","crossstree":"W Davison Ave","route":"15","routename":"CHICAGO-D","stop_id":"7102"},"geometry":{"type":"Point","coordinates":[-83.14548208173191,42.38609913702648]}},{"type":"Feature","properties":{"stop_lat":"42.386511","objectid_1":"4209","stop_desc":"Ewald Cir & W Davison Ave","label":"7103 - W Davison Ave / Ewald Cir","direction":"EASTBOUND","stop_code":"EWDAEB","stop_lon":"-83.14516","streetname":"Ewald Cir","stop_name":"EWALD CIRCLE & DAVISON 1","crossstree":"W Davison Ave","route":"43","routename":"SCHOOLCRA","stop_id":"7103"},"geometry":{"type":"Point","coordinates":[-83.14516408166845,42.38651913711584]}},{"type":"Feature","properties":{"stop_lat":"42.386252","objectid_1":"4210","stop_desc":"Ewald Cir & W Davison Ave","label":"7105 - W Davison Ave / Ewald Cir","direction":"EASTB0UND","stop_code":"EWDAEB","stop_lon":"-83.145196","streetname":"Ewald Cir","stop_name":"EWALD CIRCLE & DAVISON","crossstree":"W Davison Ave","route":"15","routename":"CHICAGO-D","stop_id":"7105"},"geometry":{"type":"Point","coordinates":[-83.14520008165815,42.386260137067985]}},{"type":"Feature","properties":{"stop_lat":"42.386304","objectid_1":"4211","stop_desc":"W Davison & Monica St","label":"7107 - Monica St / W Davison","direction":"EASTB0UND","stop_code":"DVMOEB","stop_lon":"-83.142507","streetname":"W Davison","stop_name":"DAVISON & MONICA","crossstree":"Monica St","route":"15","routename":"CHICAGO-D","stop_id":"7107"},"geometry":{"type":"Point","coordinates":[-83.14251108083295,42.38631213719923]}},{"type":"Feature","properties":{"stop_lat":"42.38651","objectid_1":"4212","stop_desc":"W Davison Ave & Monica St","label":"7108 - Monica St / W Davison","direction":"WESTBOUND","stop_code":"DVMOWB","stop_lon":"-83.142617","streetname":"W Davison","stop_name":"DAVISON & MONICA","crossstree":"Monica St","route":"15","routename":"CHICAGO-D","stop_id":"7108"},"geometry":{"type":"Point","coordinates":[-83.1426210808839,42.38651813723105]}},{"type":"Feature","properties":{"stop_lat":"42.388724","objectid_1":"4213","stop_desc":"W Davison & Holmur St","label":"7109 - Holmur St / W Davison","direction":"EASTB0UND","stop_code":"DVHOEB","stop_lon":"-83.133362","streetname":"W Davison","stop_name":"DAVISON & HOLMUR","crossstree":"Holmur St","route":"15","routename":"CHICAGO-D","stop_id":"7109"},"geometry":{"type":"Point","coordinates":[-83.1333660782114,42.38873213804615]}},{"type":"Feature","properties":{"stop_lat":"42.38884","objectid_1":"4214","stop_desc":"W Davison & Holmur St","label":"7110 - Holmur St / W Davison","direction":"WESTBOUND","stop_code":"DVHOWB","stop_lon":"-83.133729","streetname":"W Davison","stop_name":"DAVISON & HOLMUR","crossstree":"Holmur St","route":"15","routename":"CHICAGO-D","stop_id":"7110"},"geometry":{"type":"Point","coordinates":[-83.13373307833417,42.388848138050264]}},{"type":"Feature","properties":{"stop_lat":"42.392247","objectid_1":"4215","stop_desc":"Dexter Ave & Pasadena St","label":"7111 - Pasadena St / Dexter Ave","direction":"NORTHBOUN","stop_code":"DXPANB","stop_lon":"-83.132393","streetname":"Dexter Ave","stop_name":"DEXTER & PASADENA","crossstree":"Pasadena St","route":"16","routename":"DEXTER","stop_id":"7111"},"geometry":{"type":"Point","coordinates":[-83.13239707820321,42.3922551387192]}},{"type":"Feature","properties":{"stop_lat":"42.39189","objectid_1":"4216","stop_desc":"Dexter Ave & Pasadena St","label":"7112 - Pasadena St / Dexter Ave","direction":"SOUTHBOUN","stop_code":"DXPASB","stop_lon":"-83.13254","streetname":"Dexter Ave","stop_name":"DEXTER & PASADENA","crossstree":"Pasadena St","route":"16","routename":"DEXTER","stop_id":"7112"},"geometry":{"type":"Point","coordinates":[-83.13254407821908,42.39189813864876]}},{"type":"Feature","properties":{"stop_lat":"42.395585","objectid_1":"4217","stop_desc":"Dexter Ave & Doris Ave","label":"7114 - Doris Ave / Dexter Ave","direction":"NORTHBOUN","stop_code":"DXDONB","stop_lon":"-83.134322","streetname":"Dexter Ave","stop_name":"DEXTER & DORIS","crossstree":"Doris Ave","route":"16","routename":"DEXTER","stop_id":"7114"},"geometry":{"type":"Point","coordinates":[-83.13432607907393,42.39559313922765]}},{"type":"Feature","properties":{"stop_lat":"42.395254","objectid_1":"4218","stop_desc":"Dexter Ave & Doris Ave","label":"7115 - Doris Ave / Dexter Ave","direction":"SOUTHBOUN","stop_code":"DXDOSB","stop_lon":"-83.13453","streetname":"Dexter Ave","stop_name":"DEXTER & DORIS","crossstree":"Doris Ave","route":"16","routename":"DEXTER","stop_id":"7115"},"geometry":{"type":"Point","coordinates":[-83.13453407911081,42.39526213915913]}},{"type":"Feature","properties":{"stop_lat":"42.388543","objectid_1":"4219","stop_desc":"Dexter Ave & Tyler Ave","label":"7116 - Tyler Ave / Dexter Ave","direction":"NORTHBOUN","stop_code":"DXTYNB","stop_lon":"-83.130001","streetname":"Dexter Ave","stop_name":"DEXTER & TYLER","crossstree":"Tyler Ave","route":"16","routename":"DEXTER","stop_id":"7116"},"geometry":{"type":"Point","coordinates":[-83.13000507715947,42.38855113816624]}},{"type":"Feature","properties":{"stop_lat":"42.38815","objectid_1":"4220","stop_desc":"Dexter Ave & Tyler Ave","label":"7117 - Tyler Ave / Dexter Ave","direction":"SOUTHBOUN","stop_code":"DXTYSB","stop_lon":"-83.130099","streetname":"Dexter Ave","stop_name":"DEXTER & TYLER","crossstree":"Tyler Ave","route":"16","routename":"DEXTER","stop_id":"7117"},"geometry":{"type":"Point","coordinates":[-83.13010307715732,42.388158138091676]}},